Comune;Provincia;Regione;Nome;Anno inserimento;Data e ora inserimento;Identificatore in OpenStreetMap;Longitudine;Latitudine
ALTRO;ALTRO;ALTRO;Ortopedska bolni?nica Valdoltra;2013;2013-09-14T14:35:28Z;1419803934;13.7277213;45.5815952999999
ALTRO;ALTRO;ALTRO;Zdravstveni dom Miren;2015;2015-11-15T09:47:23Z;1859060367;13.606064;45.8902440999999
BORGARO TORINESE;CITTA' METROPOLITANA DI TORINO;Piemonte;CRI;2012;2012-03-28T02:25:31Z;1287732721;7.7037961;45.1418643
BORGARO TORINESE;CITTA' METROPOLITANA DI TORINO;Piemonte;CRI;2012;2012-03-28T02:25:31Z;1287732721;7.7037961;45.1418643
CASTELLAMONTE;CITTA' METROPOLITANA DI TORINO;Piemonte;Ospedale Civile di Castellamonte;2013;2013-03-26T22:51:46Z;506720441;7.7084619;45.3813835999999
CHIERI;CITTA' METROPOLITANA DI TORINO;Piemonte;;2016;2016-02-07T15:01:52Z;618065063;7.8231999;45.0111603
CHIVASSO;CITTA' METROPOLITANA DI TORINO;Piemonte;;2012;2012-12-13T14:58:29Z;965879060;7.8947829;45.191878
COLLEGNO;CITTA' METROPOLITANA DI TORINO;Piemonte;Guardia Medica;2015;2015-05-16T09:25:09Z;3521390394;7.5763491;45.0861935
GIAVENO;CITTA' METROPOLITANA DI TORINO;Piemonte;Ospedale Civile di Giaveno;2012;2012-07-27T13:05:12Z;1013180642;7.3563635;45.0419307
ORBASSANO;CITTA' METROPOLITANA DI TORINO;Piemonte;Ospedale San Luigi - Emergency;2015;2015-05-23T10:10:20Z;3538127650;7.5589817;45.0292178999999
PIANEZZA;CITTA' METROPOLITANA DI TORINO;Piemonte;IRM;2014;2014-09-06T02:52:15Z;2975475598;7.5565018;45.0956290999999
POMARETTO;CITTA' METROPOLITANA DI TORINO;Piemonte;Ospedale di Pomaretto;2012;2012-07-29T20:50:40Z;1582482972;7.1825635;44.9564888
RIVOLI;CITTA' METROPOLITANA DI TORINO;Piemonte;Ospedale di Rivoli - Emergency;2015;2015-05-16T09:23:04Z;3521386459;7.5214476;45.0599378
TORINO;CITTA' METROPOLITANA DI TORINO;Piemonte;;2014;2014-10-25T15:41:24Z;3149295783;7.6354798;45.0668493
TORINO;CITTA' METROPOLITANA DI TORINO;Piemonte;Azienda Asl TO2 Circoscrizione 7;2015;2015-02-17T13:52:06Z;3342035128;7.703882;45.0689313
TORINO;CITTA' METROPOLITANA DI TORINO;Piemonte;Ospedale CTO - Emergency;2015;2015-05-23T10:17:27Z;3538149953;7.6739743;45.0336034999999
TORINO;CITTA' METROPOLITANA DI TORINO;Piemonte;Ospedale Koelliker;2013;2013-11-08T16:31:18Z;2524447312;7.6546618;45.0410119
TORINO;CITTA' METROPOLITANA DI TORINO;Piemonte;Ospedale Maria Vittoria - Emergency;2015;2015-10-12T13:52:03Z;3538127633;7.6562946;45.0825839
TORINO;CITTA' METROPOLITANA DI TORINO;Piemonte;Ospedale Martini - Emergency;2015;2015-05-23T10:10:19Z;3538127618;7.6279499;45.0666155999999
TORINO;CITTA' METROPOLITANA DI TORINO;Piemonte;Ospedale Mauriziano - Emergency;2015;2015-05-23T10:17:28Z;3538149967;7.6650676;45.0506382
TORINO;CITTA' METROPOLITANA DI TORINO;Piemonte;Ospedale Molinette - Emergency;2015;2015-05-23T10:10:20Z;3538127651;7.6739771;45.0415203
TORINO;CITTA' METROPOLITANA DI TORINO;Piemonte;Ospedale Sant'Anna - Emergency;2015;2015-05-23T10:10:20Z;3538127652;7.6733251;45.0358947
TORINO;CITTA' METROPOLITANA DI TORINO;Piemonte;Poliambulatorio ASL TO1;2015;2015-12-17T13:19:56Z;3896547668;7.6492885;45.0155181
TORINO;CITTA' METROPOLITANA DI TORINO;Piemonte;Presidio Ospedaliero Major;2015;2015-02-17T07:33:52Z;3352096005;7.6999591;45.0687707
TORINO;CITTA' METROPOLITANA DI TORINO;Piemonte;Presidio sanitario ?Vittorio Valletta?;2015;2015-11-25T10:56:01Z;3858667665;7.6307308;45.0157095
TORINO;CITTA' METROPOLITANA DI TORINO;Piemonte;Pronto soccorso pediatrico;2015;2015-04-11T20:27:29Z;3451061182;7.6740616;45.0344377999999
TORINO;CITTA' METROPOLITANA DI TORINO;Piemonte;"RSA """"Cardinal Ballestrero";2015;2015-11-25T12:42:09Z;3858824567;7.6202533;45.0178237
VENARIA REALE;CITTA' METROPOLITANA DI TORINO;Piemonte;Ospedale Venaria - Emergency;2015;2015-05-23T11:07:41Z;3538322174;7.6286369;45.1336585
VINOVO;CITTA' METROPOLITANA DI TORINO;Piemonte;Croce Verde;2010;2010-08-21T16:26:06Z;872054634;7.6391411;44.9529839
GATTINARA;VERCELLI;Piemonte;Asl Vc;2013;2013-05-07T12:05:55Z;2294634302;8.3729093;45.6089230999999
VARALLO;VERCELLI;Piemonte;Casa Serena;2014;2014-01-22T17:41:35Z;2632598165;8.26873559999999;45.8093866999999
VERCELLI;VERCELLI;Piemonte;Ambulatorio Veterinario;2014;2014-07-02T11:23:01Z;2943298582;8.4435872;45.3063867999999
VERCELLI;VERCELLI;Piemonte;Ambulatorio Veterinario;2014;2014-07-18T13:21:32Z;2968790196;8.40574649999999;45.326245
VERCELLI;VERCELLI;Piemonte;Clinica Santa Rita;2015;2015-05-29T06:49:26Z;2872066082;8.4223064;45.3123737
VERCELLI;VERCELLI;Piemonte;Guardia Medica;2014;2014-05-04T20:05:29Z;2814119513;8.41426809999999;45.3173648
VERCELLI;VERCELLI;Piemonte;Piastra Polifunzionale;2014;2014-05-11T13:33:47Z;2809752409;8.4162027;45.3178459
VERCELLI;VERCELLI;Piemonte;Pronto Soccorso;2014;2014-04-22T20:33:37Z;2800570544;8.41493769999999;45.3177852999999
VERCELLI;VERCELLI;Piemonte;Studio di fisioterapia clinica Adriano Reis;2014;2014-08-22T19:11:32Z;3035467608;8.4146477;45.3206489
GHEMME;NOVARA;Piemonte;Guardia Medica di Ghemme;2013;2013-08-21T12:25:21Z;2425413775;8.4195055;45.5980636999999
GHEMME;NOVARA;Piemonte;Ospedale di Ghemme;2013;2013-08-21T12:25:21Z;2425413776;8.4196422;45.5981326
NEBBIUNO;NOVARA;Piemonte;Croce Rossa Italiana - Volontari del Vergante;2014;2014-05-08T18:11:45Z;2844465977;8.5233905;45.7949059
NOVARA;NOVARA;Piemonte;Farmacia dell'Ospedale;2012;2012-11-29T10:26:49Z;2039728477;8.6224712;45.4440688999999
NOVARA;NOVARA;Piemonte;Pronto Soccorso ASL Novara;2015;2015-03-06T10:07:21Z;3385724639;8.6226392;45.4419759
BORGO SAN DALMAZZO;CUNEO;Piemonte;ASL Cuneo n.1;2011;2011-09-26T17:33:04Z;1445651410;7.4979258;44.3330721999999
BOVES;CUNEO;Piemonte;Azienda Sanitaria Locale cn1 Centralino;2011;2011-09-28T13:30:36Z;1448031743;7.5483669;44.3296001
BRA;CUNEO;Piemonte;Casa di cura privata Città di BRA;2013;2013-09-03T14:06:07Z;1870099273;7.8586648;44.6968374
BUSCA;CUNEO;Piemonte;Azienda Sanitaria Locale cn1;2015;2015-02-08T21:35:40Z;1446961749;7.4727258;44.5145968
CARAGLIO;CUNEO;Piemonte;Ospedale di Caraglio ASL CN1;2015;2015-05-08T21:24:22Z;1803194882;7.4242149;44.4148532999999
CHIUSA DI PESIO;CUNEO;Piemonte;Azienda Sanitaria Locale cn1;2012;2012-04-11T16:31:34Z;1448063765;7.6794273;44.3212575
CHIUSA DI PESIO;CUNEO;Piemonte;"Residenza per anziani """"La Meridiana""""";2011;2011-08-08T21:54:17Z;1391573415;7.6721978;44.3262740999999
DOGLIANI;CUNEO;Piemonte;;2013;2013-04-22T10:24:32Z;2276789081;7.943788;44.5307856
ENTRACQUE;CUNEO;Piemonte;Centro Socio Assistenziale San Michele;2011;2011-09-26T14:29:05Z;1446273813;7.3972604;44.23857
FOSSANO;CUNEO;Piemonte;Ospedale Maggiore;2010;2010-11-28T14:02:12Z;1010828999;7.723091;44.5477880999999
PEVERAGNO;CUNEO;Piemonte;Azienda Sanitaria Locale cn1 Prenotazioni;2012;2012-01-05T14:47:43Z;1447981808;7.6225698;44.3306715
PEVERAGNO;CUNEO;Piemonte;Croce Rossa Italiana Delegazione di Peveragno;2012;2012-01-05T14:47:43Z;1447984261;7.6225068;44.3308615999999
ROBILANTE;CUNEO;Piemonte;Istituto Climatico;2012;2012-11-27T01:10:42Z;1512114795;7.5207276;44.2879456
RODELLO;CUNEO;Piemonte;"Casa di cura """"La Residenza""""";2015;2015-04-02T07:32:56Z;3431226791;8.05940599999999;44.6312270999999
VILLANOVA MONDOVI';CUNEO;Piemonte;Azienda Sanitaria locale cn1;2011;2011-09-28T09:13:29Z;1447884401;7.7619399;44.3446904999999
NIZZA MONFERRATO;ASTI;Piemonte;Ospedale Santo Spirito;2013;2013-09-01T18:10:34Z;1177271563;8.3550006;44.772987
ACQUI TERME;ALESSANDRIA;Piemonte;Casa di cura Villa Igea;2014;2014-11-01T17:27:26Z;3160224386;8.468272;44.6811659
ALESSANDRIA;ALESSANDRIA;Piemonte;Hospice Il Gelso;2015;2015-08-06T08:36:12Z;3456136050;8.622921;44.9151657999999
ALESSANDRIA;ALESSANDRIA;Piemonte;Pronto Soccorso;2016;2016-01-03T09:56:19Z;3184542612;8.6218314;44.9171105
ALESSANDRIA;ALESSANDRIA;Piemonte;SALUS;2015;2015-04-17T08:44:29Z;3461258398;8.6121506;44.9124631999999
CASALNOCETO;ALESSANDRIA;Piemonte;centro paolo VI;2010;2010-09-18T14:59:05Z;916881543;8.9866706;44.9118616
NOVI LIGURE;ALESSANDRIA;Piemonte;Ospedale San Giacomo;2014;2014-08-16T12:20:08Z;931802977;8.7928766;44.7587897
BRUSSON;AOSTA;Valle d'Aosta;Casa Di Cura Per La Salute Della Mente;2012;2012-07-11T07:02:56Z;1821113074;7.737931;45.7550189999999
BRUSSON;AOSTA;Valle d'Aosta;Continuità Assistenziale (Ex Guardia Medica) AS;2015;2015-04-12T15:11:22Z;1297316345;7.7331594;45.7581873
DONNAS;AOSTA;Valle d'Aosta;Poliambulatorio di Donnas;2015;2015-05-31T14:33:18Z;1761381053;7.7735943;45.6033874
SAINT-CHRISTOPHE;AOSTA;Valle d'Aosta;Servizio Ausili AUSL Valle d'Aosta;2014;2014-08-27T07:44:39Z;2349121564;7.351557;45.7384841
VALTOURNENCHE;AOSTA;Valle d'Aosta;Centro Traumatologico;2015;2015-05-22T19:52:26Z;3536731833;7.6290055;45.9359348999999
VERRES;AOSTA;Valle d'Aosta;Clinica Veterinaria di Verres;2015;2015-11-02T11:31:29Z;3740528835;7.6914639;45.6642525
IMPERIA;IMPERIA;Liguria;;2011;2011-05-29T09:45:25Z;441523881;8.0302185;43.8915847999999
ALBENGA;SAVONA;Liguria;"Santa Maria di Misericordia""""";2014;2014-08-17T14:00:21Z;3022331437;8.199512;44.054627
FINALE LIGURE;SAVONA;Liguria;P.A. Croce Verde Finalborgo;2014;2014-11-28T09:53:26Z;2519502535;8.32926179999999;44.1762482
SAVONA;SAVONA;Liguria;Emergency Room;2010;2010-08-15T20:21:30Z;861803093;8.491168;44.3193673999999
SAVONA;SAVONA;Liguria;RSA del Santuario;2015;2015-05-07T07:18:16Z;368280172;8.43459539999999;44.3448295999999
ZUCCARELLO;SAVONA;Liguria;Soccorso Cinofilo Liguria - Campo Addestramento;2014;2014-08-17T10:15:34Z;2774569646;8.1217112;44.108102
ZUCCARELLO;SAVONA;Liguria;Soccorso Cinofilo Liguria - Sede Operativa;2014;2014-08-17T10:15:34Z;2774570245;8.1152096;44.1112545
CAMPO LIGURE;CITTA' METROPOLITANA DI GENOVA;Liguria;Opera Pia San Michele Arcangelo;2010;2010-01-03T21:35:33Z;603938253;8.6994053;44.5358518999999
CICAGNA;CITTA' METROPOLITANA DI GENOVA;Liguria;Ospedaletto;2014;2014-11-10T17:36:56Z;3092330573;9.2431181;44.4055316999999
COGOLETO;CITTA' METROPOLITANA DI GENOVA;Liguria;;2015;2015-09-21T11:21:47Z;2766446026;8.6454868;44.389983
GENOVA;CITTA' METROPOLITANA DI GENOVA;Liguria;Croce Rossa Italiana - Comitato Locale di Genova;2014;2014-10-25T17:21:55Z;2775158723;8.982215;44.4012259
GENOVA;CITTA' METROPOLITANA DI GENOVA;Liguria;Croce Rossa Italiana - Comitato Locale di Genova;2015;2015-12-29T13:19:09Z;3149433919;8.9604908;44.4045232
GENOVA;CITTA' METROPOLITANA DI GENOVA;Liguria;Hospice Gigi Ghirotti;2011;2011-09-22T18:18:50Z;1427976790;8.9671273;44.4034882999999
GENOVA;CITTA' METROPOLITANA DI GENOVA;Liguria;Ospedale Pastorino;2015;2015-10-13T08:12:42Z;3784314302;8.90193099999999;44.463971
GENOVA;CITTA' METROPOLITANA DI GENOVA;Liguria;Pronto Soccorso;2012;2012-03-01T22:33:38Z;1655214176;8.9751824;44.408726
GENOVA;CITTA' METROPOLITANA DI GENOVA;Liguria;Pronto Soccorso;2013;2013-04-30T09:15:08Z;2286538221;8.7452734;44.4300105
GENOVA;CITTA' METROPOLITANA DI GENOVA;Liguria;Pronto Soccorso Ostetrico;2014;2014-10-08T00:48:57Z;1149150256;8.9698024;44.4080707
GENOVA;CITTA' METROPOLITANA DI GENOVA;Liguria;Pubblica Assistenza Nerviese;2014;2014-12-29T15:47:56Z;1743778682;9.0325477;44.384506
LEVANTO;LA SPEZIA;Liguria;;2015;2015-01-10T23:44:33Z;3281294381;9.6195244;44.1766018
SARZANA;LA SPEZIA;Liguria;;2012;2012-09-27T21:58:33Z;1469458250;9.9495694;44.1214039999999
BISUSCHIO;VARESE;Lombardia;Centro Diurno di Bisuschio;2015;2015-12-02T11:35:04Z;3872646923;8.8805137;45.8828614
CITTIGLIO;VARESE;Lombardia;Ospedale di Cittiglio;2015;2015-02-03T14:22:09Z;872506122;8.6681273;45.8940902
CUNARDO;VARESE;Lombardia;Le Terrazze;2009;2009-12-31T15:47:39Z;602211592;8.8064315;45.9346322
LUINO;VARESE;Lombardia;Ospedale Luini Confalonieri;2016;2016-01-09T15:17:30Z;1869897812;8.7457992;45.9961536
SARONNO;VARESE;Lombardia;LABORATORIO ANALISI MEDICHE GESTIONE LABORATORI;2014;2014-12-02T17:56:51Z;3216127174;9.0324228;45.6365880999999
SARONNO;VARESE;Lombardia;Meditel clinica ambulatorio;2012;2012-09-09T16:36:21Z;1907133077;9.03034869999999;45.6307852999999
SARONNO;VARESE;Lombardia;Pronto Soccorso;2014;2014-12-02T08:06:16Z;3215382613;9.0392051;45.6303691
CAGNO;COMO;Lombardia;Ambulatorio;2013;2013-09-04T11:41:33Z;2445650941;8.9184692;45.8116904999999
COMO;COMO;Lombardia;Villa Aprica;2010;2010-05-27T15:01:06Z;429876745;9.06105999999999;45.8234998
MENAGGIO;COMO;Lombardia;ASL Menaggio;2012;2012-05-25T17:04:39Z;1740868546;9.23885119999999;46.0251391999999
MENAGGIO;COMO;Lombardia;"Ospedale """"Sant'Anna"""" di Menaggio";2014;2014-06-27T19:12:53Z;280213549;9.2274814;46.0183389999999
GRAVEDONA E UNITI;COMO;Lombardia;;2010;2010-09-24T19:23:44Z;308452518;9.29968309999999;46.1423885999999
BELLAGIO;COMO;Lombardia;;2015;2015-04-14T20:27:39Z;427724309;9.2610845;45.9882544999999
TIRANO;SONDRIO;Lombardia;Struttura sanitaria di Tirano - Poliambulatori;2011;2011-10-06T10:42:08Z;1456629565;10.1691012999999;46.2183835
ABBIATEGRASSO;CITTA' METROPOLITANA DI MILANO;Lombardia;Centro Diagnostico Fleming;2014;2014-01-02T20:22:03Z;2606776652;8.9185105;45.399855
BRESSO;CITTA' METROPOLITANA DI MILANO;Lombardia;Centro Polifunzionale di Emergenza Croce Rossa I;2013;2013-04-26T12:10:46Z;2282025039;9.2055001;45.5334332999999
CASSANO D'ADDA;CITTA' METROPOLITANA DI MILANO;Lombardia;;2012;2012-09-14T21:49:22Z;892211002;9.5162469;45.5227481
CERNUSCO SUL NAVIGLIO;CITTA' METROPOLITANA DI MILANO;Lombardia;Casa di Cura Anziani;2013;2013-01-21T13:22:12Z;1641747487;9.3337591;45.5273425
GARBAGNATE MILANESE;CITTA' METROPOLITANA DI MILANO;Lombardia;Casa Riposo S. Pertini;2009;2009-10-24T17:36:35Z;539588673;9.0791263;45.5848586999999
GARBAGNATE MILANESE;CITTA' METROPOLITANA DI MILANO;Lombardia;Ospedale S. Corona Garbagnate - Salvini;2010;2010-02-03T22:07:00Z;539389756;9.096663;45.5816535
MILANO;CITTA' METROPOLITANA DI MILANO;Lombardia;;2015;2015-02-26T15:24:37Z;3373327796;9.0908557;45.4628809
MILANO;CITTA' METROPOLITANA DI MILANO;Lombardia;;2015;2015-04-16T12:08:32Z;3459236688;9.1023876;45.5176284
MILANO;CITTA' METROPOLITANA DI MILANO;Lombardia;;2015;2015-04-16T12:08:33Z;3459240713;9.1094515;45.5189789
MILANO;CITTA' METROPOLITANA DI MILANO;Lombardia;;2015;2015-04-16T12:08:34Z;3459240740;9.0960731;45.5208012
MILANO;CITTA' METROPOLITANA DI MILANO;Lombardia;;2015;2015-09-09T05:49:07Z;3735457853;9.1775637;45.4650281999999
MILANO;CITTA' METROPOLITANA DI MILANO;Lombardia;Clinica Columbus;2014;2014-08-20T21:28:09Z;281587946;9.1557776;45.472802
MILANO;CITTA' METROPOLITANA DI MILANO;Lombardia;Istituto Scientifico Ospedale San Luca;2014;2014-04-14T20:38:44Z;2791491258;9.1450352;45.4718982999999
MILANO;CITTA' METROPOLITANA DI MILANO;Lombardia;Ospedal Buzzi;2009;2009-10-26T21:59:53Z;541052343;9.1671338;45.4858497
MILANO;CITTA' METROPOLITANA DI MILANO;Lombardia;Ospedale Gaetano Pini;2015;2015-04-28T08:17:09Z;260044832;9.1936546;45.4547689999999
MILANO;CITTA' METROPOLITANA DI MILANO;Lombardia;Ospedale Luigi Sacco;2008;2008-07-03T10:06:46Z;275707305;9.1231233;45.5191512999999
MILANO;CITTA' METROPOLITANA DI MILANO;Lombardia;Ospedale San Giuseppe;2014;2014-04-13T10:46:26Z;272877453;9.1715163;45.4630950999999
MILANO;CITTA' METROPOLITANA DI MILANO;Lombardia;Poliambulatorio Cesare Pozzo;2014;2014-02-03T17:52:00Z;278208919;9.1673344;45.4998068
MILANO;CITTA' METROPOLITANA DI MILANO;Lombardia;Poliambulatorio Sassi;2014;2014-02-18T13:32:52Z;2678697562;9.1720033;45.4668624999999
MILANO;CITTA' METROPOLITANA DI MILANO;Lombardia;S. Ambrogio;2015;2015-12-13T15:09:14Z;2106322765;9.1533085;45.4843771999999
MILANO;CITTA' METROPOLITANA DI MILANO;Lombardia;S. Ambrogio-Prontosoccorso;2015;2015-12-13T15:09:14Z;2106323310;9.1533694;45.4846087
LOVERE;BERGAMO;Lombardia;;2012;2012-06-08T20:56:31Z;868346215;10.0753892;45.8191971999999
PONTE SAN PIETRO;BERGAMO;Lombardia;Policlinico San Pietro;2010;2010-12-28T08:20:14Z;365883717;9.5755584;45.6982567
ROMANO DI LOMBARDIA;BERGAMO;Lombardia;Ospedale di Romano;2013;2013-10-05T21:08:59Z;1937258648;9.7511046;45.5197848999999
SERIATE;BERGAMO;Lombardia;;2013;2013-01-26T19:19:49Z;2129666762;9.71816379999999;45.6831281999999
SPIRANO;BERGAMO;Lombardia;;2012;2012-03-23T14:42:40Z;1687284647;9.6707534;45.5822743
SPIRANO;BERGAMO;Lombardia;Ospizio;2012;2012-03-23T17:28:57Z;1687457780;9.6667086;45.5815308999999
CARPENEDOLO;BRESCIA;Lombardia;Casa Di Riposo S.Maria Castello;2012;2012-07-09T22:13:51Z;1819494689;10.4265373;45.3658726
GARGNANO;BRESCIA;Lombardia;Guardia Medica;2015;2015-11-25T15:00:15Z;1996725069;10.6616525;45.6881891
GAVARDO;BRESCIA;Lombardia;Pronto Soccorso;2015;2015-11-25T12:50:32Z;3351874372;10.4408221;45.5883386
LOGRATO;BRESCIA;Lombardia;Ambulatorio medico;2013;2013-02-07T14:25:47Z;2145385340;10.0540448999999;45.4822859
MANERBIO;BRESCIA;Lombardia;Ospedale di Manerbio;2016;2016-01-11T15:00:32Z;3939620367;10.1461288;45.3567305999999
MONTICHIARI;BRESCIA;Lombardia;Spedali Civili Brescia Montichiari;2014;2014-06-21T15:17:07Z;2148204881;10.4087873;45.4104243999999
RODENGO-SAIANO;BRESCIA;Lombardia;Pronto Soccorso Avis;2013;2013-04-18T17:02:59Z;2242220553;10.1102536;45.5925099
ROE' VOLCIANO;BRESCIA;Lombardia;Fondazione Casa di Riposo di Roè Volciano - ONL;2014;2014-05-03T16:52:10Z;2833986032;10.503593;45.6221212
CASEI GEROLA;PAVIA;Lombardia;Casa di riposo San Fortunato;2015;2015-11-09T13:28:32Z;3826599061;8.9263908;45.0056537
CASEI GEROLA;PAVIA;Lombardia;Studio Medico;2015;2015-11-09T13:32:47Z;3826601913;8.92640379999999;45.0064526999999
CASORATE PRIMO;PAVIA;Lombardia;;2012;2012-09-13T13:15:11Z;1912780637;9.0145293;45.3087536999999
GODIASCO;PAVIA;Lombardia;Fondazione Don Carlo Gnocchi - Centro Santa Mari;2013;2013-09-18T22:28:33Z;2463395761;9.0271528;44.9103483999999
GODIASCO;PAVIA;Lombardia;Villa Esperia - Casa di Cura e Riabilitazione;2013;2013-09-18T12:28:50Z;2462838795;9.0347357;44.9061884999999
MONTESCANO;PAVIA;Lombardia;Istituto per la Riabilitazione Maugeri;2009;2009-12-29T13:32:58Z;600862762;9.2852387;45.0320789
PAVIA;PAVIA;Lombardia;Clinica Città di Pavia;2010;2010-02-19T01:32:29Z;645900549;9.1674404;45.1923356
PAVIA;PAVIA;Lombardia;C.N.A.O. - Centro Nazionale di Adroterapia Oncol;2014;2014-05-12T14:15:51Z;2852940512;9.1449718;45.2010537
PAVIA;PAVIA;Lombardia;DEA;2014;2014-05-12T14:15:51Z;2579533175;9.14741169999999;45.2007173
PAVIA;PAVIA;Lombardia;Fondazione Salvatore Maugeri;2012;2012-11-30T22:43:42Z;1628293885;9.141984;45.204487
PAVIA;PAVIA;Lombardia;Istituto di Medicina del Lavoro;2010;2010-04-02T17:00:22Z;681739610;9.1503742;45.1893171999999
PAVIA;PAVIA;Lombardia;Istituto Santa Margherita;2014;2014-09-09T14:55:52Z;3068442200;9.1722316;45.1953627999999
STRADELLA;PAVIA;Lombardia;Croce Rossa Italiana - Stradella;2014;2014-08-31T13:51:29Z;2513622263;9.3246026;45.0664045999999
VARZI;PAVIA;Lombardia;"Ospedale Civile di Varzi """"SS. Annunziata""""";2016;2016-01-11T15:15:18Z;3939620559;9.1910866;44.8254166999999
VARZI;PAVIA;Lombardia;Pronto Soccorso - OC Varzi;2014;2014-07-11T12:08:04Z;2958452870;9.191632;44.8254669
VOGHERA;PAVIA;Lombardia;;2015;2015-01-08T23:37:28Z;2707160891;8.9987308;44.9899531
VOGHERA;PAVIA;Lombardia;Ospedale Civile di Voghera - Accesso Pronto Socc;2013;2013-03-14T16:34:56Z;1978580077;9.0169345;44.9954106
VOGHERA;PAVIA;Lombardia;Ospedale civile di voghera entrata posteriore;2013;2013-03-13T23:19:35Z;2200633476;9.0145176;44.9947822999999
AGNADELLO;CREMONA;Lombardia;;2014;2014-10-02T16:54:35Z;3107550975;9.55848879999999;45.4449990999999
CASTELVERDE;CREMONA;Lombardia;Opera Pia Redentore;2010;2010-03-27T20:56:18Z;676278746;9.9957553;45.1877943
CREMA;CREMONA;Lombardia;Ospedale Maggiore di Crema;2009;2009-08-19T09:08:34Z;283583053;9.6804623;45.3540344
CREMONA;CREMONA;Lombardia;Casa di cura Figlie di San Camillo;2015;2015-09-26T22:47:19Z;2090726100;10.0127963;45.1450602999999
CREMONA;CREMONA;Lombardia;Casa di cura San Camillo;2013;2013-01-01T10:07:05Z;2090726090;10.0393849999999;45.1375778
RIVOLTA D'ADDA;CREMONA;Lombardia;Ospedale di Rivolta d'Adda;2013;2013-12-24T20:39:34Z;2593163397;9.5149233;45.4692407
SORESINA;CREMONA;Lombardia;Guardia Medica;2015;2015-03-31T12:11:52Z;3428462806;9.8559959;45.2893083
SOSPIRO;CREMONA;Lombardia;Clinica Sospiro;2010;2010-04-03T14:54:24Z;628037181;10.1574466999999;45.1062061
SAN BENEDETTO PO;MANTOVA;Lombardia;Poli ambulatorio;2014;2014-05-08T22:06:37Z;2845125874;10.9281653999999;45.0404422
VIADANA;MANTOVA;Lombardia;ospitale civile;2015;2015-05-17T07:16:02Z;3523075426;10.522617;44.9261345
BADIA;BOLZANO;Trentino-Alto Adige;Ambulatorio dr. Spechtenhauser /medical facility;2013;2013-08-26T14:33:34Z;2359091864;11.9047269999999;46.5835706
CALDARO SULLA STRADA DEL VINO;BOLZANO;Trentino-Alto Adige;;2015;2015-09-25T11:27:00Z;2749772744;11.2443209999999;46.4132760999999
CORVARA IN BADIA;BOLZANO;Trentino-Alto Adige;;2014;2014-01-19T12:36:21Z;2347103160;11.8736456;46.5494088
CORVARA IN BADIA;BOLZANO;Trentino-Alto Adige;medical facility;2013;2013-06-26T17:16:22Z;2347041428;11.8558119;46.5543853
MERANO;BOLZANO;Trentino-Alto Adige;Privatklinik Martinsbrunn;2015;2015-03-12T17:18:16Z;1026932691;11.148008;46.6851818
SARENTINO;BOLZANO;Trentino-Alto Adige;Spital Sarnthein;2012;2012-05-09T17:03:31Z;1597396516;11.3560953999999;46.6422598999999
TERLANO;BOLZANO;Trentino-Alto Adige;Sanitätssprengel;2014;2014-08-31T14:21:43Z;2756012609;11.2495727999999;46.5282079999999
BASELGA DI PINE';TRENTO;Trentino-Alto Adige;Poliambulatorio comunale - Medici Generici - Ped;2013;2013-12-22T18:41:00Z;2590602528;11.2438351999999;46.127906
DENNO;TRENTO;Trentino-Alto Adige;Guardia Medica;2013;2013-12-22T15:53:00Z;2590418162;11.0490774;46.2747699
LEVICO TERME;TRENTO;Trentino-Alto Adige;Poliambulatorio di Levico Terme;2012;2012-01-19T00:41:18Z;558635245;11.3041043;46.0095327
MEZZANA;TRENTO;Trentino-Alto Adige;;2010;2010-12-06T12:13:10Z;333785005;10.8099609999999;46.3014622999999
MEZZOLOMBARDO;TRENTO;Trentino-Alto Adige;Guardia Medica;2014;2014-01-24T22:10:22Z;2590431393;11.0946842;46.2130371
MORI;TRENTO;Trentino-Alto Adige;Guardia Medica;2013;2013-12-22T16:08:04Z;2590424734;10.9813247;45.8511470999999
PERGINE VALSUGANA;TRENTO;Trentino-Alto Adige;Ex Villa Rosa;2015;2015-12-29T11:39:24Z;474985898;11.2202728;46.0746601999999
SEGONZANO;TRENTO;Trentino-Alto Adige;Guardia Medica;2013;2013-12-22T16:16:21Z;2503395889;11.2585751;46.1874416
TAIO;TRENTO;Trentino-Alto Adige;Guardia Medica;2013;2013-12-22T16:07:27Z;2590432394;11.0661112999999;46.3203408999999
TRENTO;TRENTO;Trentino-Alto Adige;Guardia Medica;2015;2015-02-27T15:42:04Z;2590424266;11.1318091999999;46.0571618
TRENTO;TRENTO;Trentino-Alto Adige;Studio Odontoiatrico;2015;2015-07-06T12:19:44Z;3637095818;11.0579763;46.0705601
TRES;TRENTO;Trentino-Alto Adige;Medico di base;2015;2015-02-27T13:01:11Z;3374682876;11.0952360999999;46.3215841999999
ALBAREDO D'ADIGE;VERONA;Veneto;Usll20;2011;2011-11-27T10:59:45Z;1519319976;11.2757858;45.3137437999999
BARDOLINO;VERONA;Veneto;Distretto Sanitario;2015;2015-05-26T14:05:37Z;835482201;10.7202912;45.5535677
BARDOLINO;VERONA;Veneto;Medical Clinic;2010;2010-09-17T13:16:39Z;824408688;10.726559;45.5503180999999
BRENZONE;VERONA;Veneto;Infermeria di Casa Madre delle Piccole Suore del;2016;2016-02-04T18:17:36Z;3988496870;10.7520214;45.6879625999999
GARDA;VERONA;Veneto;;2014;2014-08-25T13:55:32Z;817771347;10.7158393;45.5818385999999
GARDA;VERONA;Veneto;White Cross ambulance;2011;2011-07-31T11:33:33Z;671619973;10.7102933;45.5748583
GREZZANA;VERONA;Veneto;Studio Medico Associato;2015;2015-02-21T20:08:43Z;3364333150;11.0214506;45.5210367
MALCESINE;VERONA;Veneto;Ospedale di Malcesine;2013;2013-06-10T21:26:00Z;2339818894;10.798017;45.7514857
PESCHIERA DEL GARDA;VERONA;Veneto;;2014;2014-03-03T17:27:11Z;2700238572;10.7063691;45.4438078
SAN MARTINO BUON ALBERGO;VERONA;Veneto;;2010;2010-12-20T15:29:03Z;497557583;11.0851501;45.4164595
VERONA;VERONA;Veneto;Pronto soccorso;2014;2014-02-24T20:25:37Z;1332150759;10.9818643999999;45.4530457999999
VERONA;VERONA;Veneto;Pronto Soccorso;2014;2014-04-13T13:07:49Z;1490269001;10.9923544999999;45.4028974
VILLAFRANCA DI VERONA;VERONA;Veneto;Ospedale Marcello Magalini;2014;2014-02-22T22:04:21Z;1804969211;10.8395978999999;45.3479676999999
ARSIERO;VICENZA;Veneto;Guardia Medica;2013;2013-10-11T17:36:11Z;1493334562;11.3511819;45.8041224999999
ASIAGO;VICENZA;Veneto;Ospedale civile di Asiago;2013;2013-07-08T19:23:05Z;2378284620;11.5226057999999;45.8623035999999
BASSANO DEL GRAPPA;VICENZA;Veneto;Ospedale San Bassiano;2013;2013-04-07T14:05:46Z;304230205;11.7450068;45.7480759999999
BASSANO DEL GRAPPA;VICENZA;Veneto;Vecchio Ospedale Psichiatrico;2011;2011-12-23T09:43:52Z;1559078833;11.7376824;45.7577965999999
CALDOGNO;VICENZA;Veneto;Centro Diagnostico Veneto;2011;2011-12-26T19:06:54Z;338916073;11.492417;45.6140148
ROANA;VICENZA;Veneto;Istituto Ortopedico Elioterapico;2015;2015-04-18T19:31:26Z;875665169;11.4378455999999;45.8805960999999
SANTORSO;VICENZA;Veneto;Nuovo Ospedale Santorso;2015;2015-05-09T12:23:37Z;1650859424;11.4151094;45.7275753999999
SCHIO;VICENZA;Veneto;Croce Rossa Italiana - Comitato Locale di Schio;2014;2014-01-15T08:38:53Z;2620114768;11.3567889;45.7210651999999
SCHIO;VICENZA;Veneto;Defibrillatore (DAE) 24H;2015;2015-05-13T04:23:05Z;3498514926;11.3583833;45.7127375
THIENE;VICENZA;Veneto;Ospedale di Thiene;2012;2012-03-21T10:15:56Z;444692252;11.4703862999999;45.7111007999999
VICENZA;VICENZA;Veneto;Casa di Cura privata Eretenia;2015;2015-01-12T19:31:53Z;3284592570;11.5458614;45.5437818999999
VICENZA;VICENZA;Veneto;Centro Diurno Anziani;2016;2016-01-27T14:39:01Z;3971286697;11.5892918999999;45.5417387999999
VICENZA;VICENZA;Veneto;Guardia Medica - Servizio di continuità assiste;2013;2013-05-02T12:09:09Z;276392454;11.5245774999999;45.5360264999999
VICENZA;VICENZA;Veneto;ingresso Palazzina Uffici dell'Ospedale;2011;2011-12-05T18:03:39Z;257360634;11.5467192999999;45.5556650999999
BELLUNO;BELLUNO;Veneto;;2016;2016-02-21T19:27:45Z;4018363478;12.2235256;46.1587280999999
BELLUNO;BELLUNO;Veneto;Obitorio;2015;2015-07-08T14:40:58Z;3641023482;12.2007344;46.1385527999999
CORTINA D'AMPEZZO;BELLUNO;Veneto;Codivilla;2013;2013-07-01T19:39:05Z;2369237060;12.1316503;46.5544499
FELTRE;BELLUNO;Veneto;Ospedale Civile;2013;2013-06-15T21:21:23Z;633282730;11.9080314;46.0231374
CASTELFRANCO VENETO;TREVISO;Veneto;Sanitaria;2013;2013-01-04T12:10:35Z;2094785552;11.9273227;45.6743870999999
CONEGLIANO;TREVISO;Veneto;La Nostra Famiglia;2010;2010-09-03T15:22:50Z;894283612;12.2863221;45.8955333999999
CRESPANO DEL GRAPPA;TREVISO;Veneto;SUEM 118  GUARDIA MEDICA;2013;2013-08-06T21:11:19Z;1388471311;11.8374924;45.828192
MONASTIER DI TREVISO;TREVISO;Veneto;Casa di Cura Giovanni XXIII;2013;2013-12-22T18:16:11Z;582732952;12.4272826999999;45.6561838
PIEVE DI SOLIGO;TREVISO;Veneto;Farmacia Schiratti di Schiratti Samuele;2011;2011-10-10T22:30:16Z;1461910080;12.1735662999999;45.9002298999999
PREGANZIOL;TREVISO;Veneto;Park Villa Napoleon - casa di cura neuropsichiat;2011;2011-06-19T15:26:09Z;1330957451;12.2355854999999;45.5917468999999
VILLORBA;TREVISO;Veneto;"Casa di riposo e Centro diurno """"Gino e Pierina";2013;2013-06-16T16:57:49Z;2348043780;12.2523651;45.7330504999999
MIRA;CITTA' METROPOLITANA DI VENEZIA;Veneto;Consultorio USL 13;2011;2011-01-26T01:29:03Z;1120722373;12.1694818999999;45.4500043
SAN MICHELE AL TAGLIAMENTO;CITTA' METROPOLITANA DI VENEZIA;Veneto;Azienda ULSS 10;2013;2013-09-16T20:20:41Z;1482481262;12.9933925;45.7635231
SAN MICHELE AL TAGLIAMENTO;CITTA' METROPOLITANA DI VENEZIA;Veneto;First Aid;2014;2014-11-19T11:16:36Z;1963439942;13.0174407;45.6300827999999
VENEZIA;CITTA' METROPOLITANA DI VENEZIA;Veneto;Istituto Carlo Steeb;2010;2010-09-04T12:28:20Z;895559828;12.3274805;45.3557088
VENEZIA;CITTA' METROPOLITANA DI VENEZIA;Veneto;Istituto Carlo Steeb;2010;2010-09-04T12:28:20Z;895559828;12.3274805;45.3557088
CITTADELLA;PADOVA;Veneto;;2010;2010-06-21T21:31:11Z;780271043;11.7873608999999;45.6475154999999
MONTAGNANA;PADOVA;Veneto;Ospedale di Montagnana;2012;2012-01-22T10:00:46Z;1600857902;11.4594703;45.2369577999999
PADOVA;PADOVA;Veneto;Centro di foniatria;2014;2014-07-08T19:17:59Z;2954858744;11.8601055;45.3994548
PADOVA;PADOVA;Veneto;Croce Rossa;2014;2014-07-14T22:12:10Z;2963468734;11.916031;45.4118223999999
PADOVA;PADOVA;Veneto;Dipartimento Socio Sanitario ai Colli;2014;2014-10-11T14:52:16Z;3124119148;11.8426598999999;45.3990431
PADOVA;PADOVA;Veneto;Villa Maria;2010;2010-11-26T10:03:23Z;1005263880;11.860234;45.4100839999999
PIAZZOLA SUL BRENTA;PADOVA;Veneto;Distretto Sanitario;2015;2015-09-08T21:42:43Z;3735141153;11.781439;45.5404135
SELVAZZANO DENTRO;PADOVA;Veneto;Ulss di Selvazzano;2011;2011-12-11T14:33:40Z;1540781487;11.7911497999999;45.3880316999999
CIVIDALE DEL FRIULI;UDINE;Friuli-Venezia Giulia;Croce Rossa Italiana;2014;2014-12-04T14:07:14Z;2288834785;13.4343509999999;46.0880066
CIVIDALE DEL FRIULI;UDINE;Friuli-Venezia Giulia;Hospital;2014;2014-12-04T14:09:26Z;3218834559;13.4381678;46.0915954
FLAIBANO;UDINE;Friuli-Venezia Giulia;Ambulatorio;2014;2014-07-22T22:42:02Z;2975045843;12.9844709;46.0570193
PALMANOVA;UDINE;Friuli-Venezia Giulia;Ospedale Civile di Palmanova;2014;2014-04-11T18:17:31Z;621603401;13.3368888;45.9083741999999
TOLMEZZO;UDINE;Friuli-Venezia Giulia;Sant?Antonio Abate;2012;2012-09-17T08:57:58Z;1918387355;13.0060085;46.4057669999999
UDINE;UDINE;Friuli-Venezia Giulia;Dipartimento di Salute Mentale A.S.S. 4;2011;2011-10-11T07:15:41Z;1462112178;13.2224860999999;46.0350255999999
UDINE;UDINE;Friuli-Venezia Giulia;Istituto di Medicina Fisica e Riabilitazione Ger;2012;2012-07-11T15:41:15Z;1821567397;13.2364482;46.0503161
RIVIGNANO TEOR;UDINE;Friuli-Venezia Giulia;;2011;2011-11-02T21:36:31Z;1489951980;13.0416995999999;45.8731437
MONFALCONE;GORIZIA;Friuli-Venezia Giulia;Pronto Soccoso;2015;2015-09-15T09:41:35Z;2929114188;13.5198304;45.8154703
TRIESTE;TRIESTE;Friuli-Venezia Giulia;Casa di cura Salus;2015;2015-07-03T22:23:39Z;1482133308;13.7630526;45.6450723
TRIESTE;TRIESTE;Friuli-Venezia Giulia;Pronto Soccorso;2014;2014-12-03T18:49:51Z;3217837479;13.7832197;45.6503015999999
TRIESTE;TRIESTE;Friuli-Venezia Giulia;Pronto Soccorso Cattinara;2014;2014-12-03T19:07:21Z;3217873909;13.8260481;45.6334942
CASTEL SAN GIOVANNI;PIACENZA;Emilia-Romagna;Ospedale civile;2012;2012-02-17T23:40:20Z;924449750;9.4404728;45.0558049999999
PIACENZA;PIACENZA;Emilia-Romagna;;2011;2011-03-13T09:37:14Z;1199871906;9.683082;45.0550582999999
PIACENZA;PIACENZA;Emilia-Romagna;defibrillatore (DAE);2014;2014-09-10T09:19:38Z;3069871601;9.6820073;45.0392366999999
PIANELLO VAL TIDONE;PIACENZA;Emilia-Romagna;Pia Casa Castagnetti;2011;2011-06-11T11:23:33Z;1319945702;9.40304109999999;44.9459847999999
ROTTOFRENO;PIACENZA;Emilia-Romagna;Casa della Salute;2013;2013-05-22T08:54:47Z;2315622764;9.6035514;45.0557511
BORGO VAL DI TARO;PARMA;Emilia-Romagna;Santa Maria;2014;2014-09-13T19:05:02Z;1455072062;9.7650202;44.4913537999999
CORNIGLIO;PARMA;Emilia-Romagna;;2011;2011-04-21T10:03:13Z;1253859525;10.0887647;44.4741550999999
FIDENZA;PARMA;Emilia-Romagna;Assistenza Pubblica Fidenza;2014;2014-08-31T13:51:27Z;2582319720;10.0387356;44.8485979
FIDENZA;PARMA;Emilia-Romagna;Italian Red Cross;2013;2013-12-16T12:54:41Z;2582316110;10.071196;44.856799
FIDENZA;PARMA;Emilia-Romagna;Ospedale di Vaio;2013;2013-12-16T12:58:36Z;441922074;10.0410822999999;44.8479985999999
FONTANELLATO;PARMA;Emilia-Romagna;Centro Cardinal Ferrari;2009;2009-08-09T12:01:31Z;411882584;10.1777926999999;44.8804537999999
FORNOVO DI TARO;PARMA;Emilia-Romagna;;2012;2012-09-26T07:13:50Z;1933333732;10.1042245;44.6941605999999
MEDESANO;PARMA;Emilia-Romagna;Croce rossa di Medesano;2012;2012-05-11T13:03:08Z;1748577183;10.1372050999999;44.7590469
PARMA;PARMA;Emilia-Romagna;;2013;2013-04-01T15:45:37Z;2242514882;10.3529564;44.7944116999999
PARMA;PARMA;Emilia-Romagna;Ospedale Maggiore;2012;2012-07-16T06:33:06Z;441349778;10.3071753;44.8025499
TIZZANO VAL PARMA;PARMA;Emilia-Romagna;Croce Rossa (Pronto Soccorso);2015;2015-03-05T19:25:14Z;3384733654;10.2007578;44.5183579999999
CASTELNOVO NE'MONTI;REGGIO EMILIA;Emilia-Romagna;Ospedale S. Anna;2012;2012-10-03T13:29:39Z;1944314039;10.4084992;44.4343463
MONTECCHIO EMILIA;REGGIO EMILIA;Emilia-Romagna;Ospedale Ercole Franchini;2014;2014-08-13T11:16:05Z;317847269;10.4498482;44.7064552
SANT'ILARIO D'ENZA;REGGIO EMILIA;Emilia-Romagna;USL Sant'Ilario d'Enza - Distretto Montecchio Em;2013;2013-04-02T10:37:03Z;2244650201;10.4562589999999;44.7614226999999
SCANDIANO;REGGIO EMILIA;Emilia-Romagna;;2015;2015-11-13T09:01:28Z;3519600792;10.6917807;44.5984071999999
MIRANDOLA;MODENA;Emilia-Romagna;Santa Maria Bianca;2012;2012-06-04T11:34:57Z;1775959558;11.0646339;44.8833825999999
MODENA;MODENA;Emilia-Romagna;Casa di cura Villa Igea;2013;2013-02-12T14:36:24Z;2151903121;10.8890923;44.6152160999999
MODENA;MODENA;Emilia-Romagna;Ospedale sant'Agostino-Estense;2010;2010-11-01T18:41:52Z;973891908;10.8723624;44.6045965
MODENA;MODENA;Emilia-Romagna;Pronto Soccorso;2012;2012-06-20T13:07:54Z;1538402646;10.9449217999999;44.6350005999999
MODENA;MODENA;Emilia-Romagna;Pronto Soccorso;2013;2013-02-16T10:48:10Z;2157172449;10.872077;44.6059935999999
MODENA;MODENA;Emilia-Romagna;Villa Rosa;2012;2012-01-15T16:44:23Z;1591090156;10.9192429;44.6311976
VIGNOLA;MODENA;Emilia-Romagna;;2010;2010-03-05T14:45:43Z;660681404;11.0107506;44.4828857999999
BOLOGNA;CITTA' METROPOLITANA DI BOLOGNA;Emilia-Romagna;;2016;2016-01-13T00:02:45Z;3942688743;11.3432172999999;44.5039911
BOLOGNA;CITTA' METROPOLITANA DI BOLOGNA;Emilia-Romagna;Ambulatorio;2014;2014-11-17T00:40:05Z;3190973943;11.3644883;44.4971699999999
BOLOGNA;CITTA' METROPOLITANA DI BOLOGNA;Emilia-Romagna;Casa di cura Villa Bellombra;2012;2012-11-13T12:46:14Z;343166389;11.3392113;44.4810068
BOLOGNA;CITTA' METROPOLITANA DI BOLOGNA;Emilia-Romagna;Cliniche Dentali;2015;2015-10-31T09:23:43Z;3810931037;11.3657854999999;44.4922959
BOLOGNA;CITTA' METROPOLITANA DI BOLOGNA;Emilia-Romagna;CUP Metropolitano;2013;2013-10-01T20:12:52Z;1544177765;11.3422736;44.5019506
BOLOGNA;CITTA' METROPOLITANA DI BOLOGNA;Emilia-Romagna;Istituto Ortopedico Rizzoli;2013;2013-09-18T10:46:36Z;1637036206;11.3415937;44.4808846
BOLOGNA;CITTA' METROPOLITANA DI BOLOGNA;Emilia-Romagna;Ospedale Militare;2009;2009-08-26T10:58:41Z;474385036;11.3346146;44.4980979999999
BOLOGNA;CITTA' METROPOLITANA DI BOLOGNA;Emilia-Romagna;Poliambulatorio Zanolini;2016;2016-01-31T11:09:54Z;3979367432;11.3573771;44.4947828
BOLOGNA;CITTA' METROPOLITANA DI BOLOGNA;Emilia-Romagna;Villa Erbosa;2013;2013-07-18T09:09:31Z;440950148;11.3429924;44.5220546999999
BOLOGNA;CITTA' METROPOLITANA DI BOLOGNA;Emilia-Romagna;Villa Regina;2009;2009-10-10T11:46:58Z;527877200;11.3487366;44.4808495999999
BOLOGNA;CITTA' METROPOLITANA DI BOLOGNA;Emilia-Romagna;Villa Torri (ospedale privato);2016;2016-02-01T15:39:09Z;3982181498;11.3578055;44.4961394999999
BUDRIO;CITTA' METROPOLITANA DI BOLOGNA;Emilia-Romagna;Centro Protesi INAIL;2012;2012-02-19T23:07:27Z;1639926848;11.5085877;44.5340915
CASALECCHIO DI RENO;CITTA' METROPOLITANA DI BOLOGNA;Emilia-Romagna;Villa Chiara;2012;2012-02-29T21:09:46Z;1653392145;11.2861572999999;44.4825779
CASTEL SAN PIETRO TERME;CITTA' METROPOLITANA DI BOLOGNA;Emilia-Romagna;Ospedale di Castel San Pietro Terme;2013;2013-07-03T19:41:08Z;1631842426;11.5923048;44.3990411999999
CASTIGLIONE DEI PEPOLI;CITTA' METROPOLITANA DI BOLOGNA;Emilia-Romagna;Casa di cura / Primo intervento;2015;2015-10-25T09:06:19Z;3801840737;11.1556529;44.1406161
CREVALCORE;CITTA' METROPOLITANA DI BOLOGNA;Emilia-Romagna;;2012;2012-11-15T09:45:09Z;2014837941;11.1487914;44.7209568999999
CREVALCORE;CITTA' METROPOLITANA DI BOLOGNA;Emilia-Romagna;;2013;2013-02-17T21:33:50Z;2014837942;11.1505916;44.7213623
GALLIERA;CITTA' METROPOLITANA DI BOLOGNA;Emilia-Romagna;;2012;2012-03-03T11:26:54Z;1657346532;11.4361615;44.741964
GALLIERA;CITTA' METROPOLITANA DI BOLOGNA;Emilia-Romagna;;2012;2012-03-03T11:26:58Z;1657346929;11.4352066;44.7407714
IMOLA;CITTA' METROPOLITANA DI BOLOGNA;Emilia-Romagna;Montecatone Rehabilitation Institute;2013;2013-10-23T13:24:19Z;827782011;11.634473;44.3483105999999
IMOLA;CITTA' METROPOLITANA DI BOLOGNA;Emilia-Romagna;Polo Territoriale Città di Imola (Ospedale Vecc;2013;2013-07-03T20:14:58Z;246493812;11.7048448999999;44.3550334999999
LOIANO;CITTA' METROPOLITANA DI BOLOGNA;Emilia-Romagna;Ospedale di Loiano;2010;2010-04-10T16:50:05Z;691691088;11.3248823;44.2670967999999
SAN GIOVANNI IN PERSICETO;CITTA' METROPOLITANA DI BOLOGNA;Emilia-Romagna;Ospedale Santissimo Salvatore;2012;2012-03-03T18:35:32Z;412480085;11.1949352999999;44.632486
SAN PIETRO IN CASALE;CITTA' METROPOLITANA DI BOLOGNA;Emilia-Romagna;"Polo Sanitario """"Anacleto Bonora""""";2009;2009-08-18T15:08:07Z;456203291;11.3998688;44.7013646999999
VERGATO;CITTA' METROPOLITANA DI BOLOGNA;Emilia-Romagna;Ospedale di Vergato;2010;2010-07-11T13:47:20Z;811406978;11.1097290999999;44.2816357
ARGENTA;FERRARA;Emilia-Romagna;Ospedale Civile Mazzolani-Vandini;2013;2013-06-07T17:01:05Z;2335579801;11.8346841;44.6118547
BONDENO;FERRARA;Emilia-Romagna;Ospedale Fratelli Borselli;2015;2015-02-20T14:59:56Z;3361796794;11.4143206999999;44.8802925
COMACCHIO;FERRARA;Emilia-Romagna;Ospedale San Camillo;2013;2013-08-28T12:25:10Z;1045853384;12.1901674999999;44.6958619999999
COPPARO;FERRARA;Emilia-Romagna;Ospedale San Giuseppe;2013;2013-05-27T10:41:25Z;2321777045;11.8286256;44.8955652
FERRARA;FERRARA;Emilia-Romagna;"Casa di cura """"Salus""""";2013;2013-04-11T22:29:56Z;2263405659;11.6189754;44.8455037
FERRARA;FERRARA;Emilia-Romagna;Centro di Medicina dello Sport;2014;2014-01-18T23:59:21Z;2627789359;11.6121009999999;44.8499058
FERRARA;FERRARA;Emilia-Romagna;Guardia Medica - Servizi socio sanitari;2013;2013-01-12T18:48:53Z;2107657889;11.59984;44.8188225
LAGOSANTO;FERRARA;Emilia-Romagna;Ospedale del Delta;2013;2013-05-23T12:25:10Z;296858314;12.1224369;44.7757063
PORTOMAGGIORE;FERRARA;Emilia-Romagna;Ospedale Carlo Eppi;2013;2013-06-02T00:13:04Z;2328753349;11.8107019999999;44.7001472
TRESIGALLO;FERRARA;Emilia-Romagna;;2012;2012-12-20T12:45:28Z;2076093265;11.8977238;44.8142688
BAGNARA DI ROMAGNA;RAVENNA;Emilia-Romagna;Poliambulatorio;2011;2011-12-07T21:12:54Z;1166552706;11.8298134;44.3891447999999
FAENZA;RAVENNA;Emilia-Romagna;Pronto Soccorso;2014;2014-06-15T11:31:58Z;546597683;11.8741958;44.288232
FUSIGNANO;RAVENNA;Emilia-Romagna;Presidio Ospedaliero;2012;2012-04-14T12:54:34Z;1716107790;11.9565868;44.4682269999999
LUGO;RAVENNA;Emilia-Romagna;Ospedale Umberto I;2008;2008-10-02T02:59:40Z;299846736;11.9211047;44.4165788999999
MASSA LOMBARDA;RAVENNA;Emilia-Romagna;;2011;2011-12-03T15:29:58Z;1529572493;11.8299831999999;44.4437596
RAVENNA;RAVENNA;Emilia-Romagna;Casa di Cura Domus Nova;2009;2009-11-21T21:19:23Z;568095443;12.1838618;44.4191658
RAVENNA;RAVENNA;Emilia-Romagna;Casa di cura San Francesco;2012;2012-03-31T19:52:03Z;528899706;12.2045274;44.4245768999999
RAVENNA;RAVENNA;Emilia-Romagna;Ospedale Santa Maria delle Croci;2008;2008-05-23T20:44:38Z;266550908;12.1904032;44.4106341999999
CESENATICO;FORLI';Emilia-Romagna;Ospedale di Cesenatico;2013;2013-02-20T08:44:04Z;2163556775;12.4094093;44.1895874
FORLI';FORLI';Emilia-Romagna;"Casa di Cura """"Villa Igea""""";2011;2011-02-05T21:15:28Z;295030604;12.0582783;44.2171813
FORLI';FORLI';Emilia-Romagna;"Casa di Cura """"Villa Serena""""";2008;2008-09-08T11:25:08Z;295017561;12.0331217;44.2179693
FORLI';FORLI';Emilia-Romagna;"Ospedale Privato """"Primus"""", gruppo Villa Maria";2011;2011-02-05T21:15:23Z;1138002831;12.0769134;44.2409730999999
FORLI';FORLI';Emilia-Romagna;Pronto Soccorso;2012;2012-07-17T22:24:05Z;303496338;12.0188659;44.2071121
FORLIMPOPOLI;FORLI';Emilia-Romagna;;2010;2010-05-07T22:19:43Z;725632990;12.1278935;44.1894694
MERCATO SARACENO;FORLI';Emilia-Romagna;Ospedale Capelli;2012;2012-04-12T22:26:57Z;1713423344;12.1947926;43.956301
SANTA SOFIA;FORLI';Emilia-Romagna;;2010;2010-01-07T22:18:01Z;608646294;11.9016441;43.9429048
SAVIGNANO SUL RUBICONE;FORLI';Emilia-Romagna;;2010;2010-01-11T20:30:15Z;611819914;12.4040304999999;44.0928195999999
CAGLI;PESARO E URBINO;Marche;"Ospedale Civile """"A. Celli""""";2015;2015-12-11T13:39:25Z;3887554332;12.650819;43.5476529999999
FOSSOMBRONE;PESARO E URBINO;Marche;Ospedale Civile Fossombrone;2015;2015-09-13T21:41:01Z;1435016188;12.8039235;43.6859261999999
FRONTONE;PESARO E URBINO;Marche;Infermeria FISPS;2013;2013-04-15T12:36:30Z;2268215239;12.6926853;43.4797123999999
MONDOLFO;PESARO E URBINO;Marche;Ospedale Bartolini;2014;2014-05-21T13:23:15Z;2872559641;13.0950519;43.7517490999999
PERGOLA;PESARO E URBINO;Marche;Ospedale SS Donnino e Carlo;2013;2013-02-07T23:03:49Z;2146013324;12.8302659;43.5686034
PESARO;PESARO E URBINO;Marche;ASUR;2012;2012-08-09T12:00:06Z;1858573726;12.8968298;43.89397
URBANIA;PESARO E URBINO;Marche;DISTRETTO SANITARIO N° 2 DI URBANIA;2014;2014-12-11T11:31:51Z;3229583110;12.5189021;43.6705787
ANCONA;ANCONA;Marche;"Ospedale Cardiologico """"Giovanni Maria Lancisi""""";2011;2011-04-26T00:06:34Z;1260345488;13.4543783;43.6031352999999
ANCONA;ANCONA;Marche;"Ospedale Pediatrico """"G. Salesi""""";2012;2012-06-10T00:51:04Z;519171100;13.5324329999999;43.6167631
ARCEVIA;ANCONA;Marche;;2014;2014-08-08T16:55:00Z;477370529;12.9414537;43.4997838
CASTELFIDARDO;ANCONA;Marche;;2012;2012-08-17T07:03:27Z;1869640800;13.5561048;43.4671201
CHIARAVALLE;ANCONA;Marche;Ospedale M. Montessori;2010;2010-08-06T21:11:51Z;848204101;13.3156798999999;43.5979322999999
CUPRAMONTANA;ANCONA;Marche;Ambulatori;2014;2014-09-06T15:36:14Z;3063336686;13.1174991;43.4467888
OSIMO;ANCONA;Marche;;2011;2011-06-15T18:05:59Z;1326679520;13.4874057999999;43.4852721
OSTRA VETERE;ANCONA;Marche;;2012;2012-01-24T20:14:11Z;1604032038;13.0566341;43.6028436
SIROLO;ANCONA;Marche;Croce Azzurra;2015;2015-02-18T17:21:23Z;3358233591;13.6124278;43.5227602
CALDAROLA;MACERATA;Marche;;2012;2012-01-31T20:23:35Z;1613443811;13.2228651999999;43.1416218
CORRIDONIA;MACERATA;Marche;Ospedale;2012;2012-12-01T17:14:52Z;519018205;13.5079439;43.2476801999999
FIASTRA;MACERATA;Marche;;2012;2012-08-12T14:35:54Z;1863087827;13.1556685;43.0362778
FIASTRA;MACERATA;Marche;;2012;2012-08-12T14:35:54Z;1863087827;13.1556685;43.0362778
MATELICA;MACERATA;Marche;;2012;2012-07-27T12:02:51Z;1839754075;13.0084794;43.2456328999999
POTENZA PICENA;MACERATA;Marche;Santo Stefano;2011;2011-04-28T18:15:11Z;364424585;13.6932443;43.3694843999999
RECANATI;MACERATA;Marche;Casa di riposo IRCER;2011;2011-08-26T11:53:29Z;1413042519;13.5520569;43.4021716
ASCOLI PICENO;ASCOLI PICENO;Marche;Casa di Cura San Giuseppe;2010;2010-05-08T13:03:34Z;595790313;13.6227292;42.8514697999999
ASCOLI PICENO;ASCOLI PICENO;Marche;Casa di Cura Villa San Marco;2010;2010-02-18T00:34:20Z;644135437;13.5881776;42.8492514
OFFIDA;ASCOLI PICENO;Marche;"Poliambulatorio di Offida (ex Ospedale Civile """"";2010;2010-05-06T22:37:46Z;672467096;13.6927564;42.9362922999999
PONTREMOLI;MASSA-CARRARA;Toscana;;2010;2010-09-25T19:05:47Z;925697734;9.88548409999999;44.3852917
CAMAIORE;LUCCA;Toscana;Ospedale Versilia;2008;2008-04-11T08:22:35Z;256836182;10.2239337;43.9143154
CAPANNORI;LUCCA;Toscana;;2014;2014-08-31T15:04:13Z;2068231105;10.6005673;43.7749317
LUCCA;LUCCA;Toscana;Casa di Cura Santa Zita;2013;2013-05-14T14:10:07Z;2302888821;10.5015937;43.8461172
LUCCA;LUCCA;Toscana;Fisioterapia;2013;2013-10-12T09:04:57Z;1798963327;10.5072563999999;43.8526783
LUCCA;LUCCA;Toscana;Presidio Osepdaliero Piana di Lucca;2012;2012-05-08T14:14:50Z;248898429;10.5175368;43.850653199999996
MASSAROSA;LUCCA;Toscana;Misericordia;2012;2012-10-28T13:43:57Z;1549453127;10.3414108;43.8671920999999
MASSAROSA;LUCCA;Toscana;Misericordia di Stiava;2012;2012-11-04T23:02:53Z;1997884009;10.3181159;43.8982658999999
MONTECARLO;LUCCA;Toscana;Misericordia di Montecarlo;2012;2012-09-22T10:28:00Z;1925413884;10.6616526;43.8478754
LAMPORECCHIO;PISTOIA;Toscana;Casa della Salute;2014;2014-06-30T16:32:11Z;2940769836;10.8948114999999;43.8151555
BAGNO A RIPOLI;CITTA' METROPOLITANA DI FIRENZE;Toscana;Ospedale S. Maria Annunziata;2012;2012-05-15T10:11:57Z;1753752061;11.3057879;43.7314568999999
BORGO SAN LORENZO;CITTA' METROPOLITANA DI FIRENZE;Toscana;Pronto soccorso;2009;2009-10-17T21:40:44Z;534447403;11.3746642;43.9585304
FIRENZE;CITTA' METROPOLITANA DI FIRENZE;Toscana;;2014;2014-09-15T19:38:01Z;3078986384;11.2860780999999;43.7723097
FIRENZE;CITTA' METROPOLITANA DI FIRENZE;Toscana;Centro Sangue;2010;2010-10-31T16:41:08Z;938223605;11.2489725;43.8067457
FIRENZE;CITTA' METROPOLITANA DI FIRENZE;Toscana;CTO;2012;2012-01-23T09:50:13Z;715801424;11.2483331999999;43.8012749
FIRENZE;CITTA' METROPOLITANA DI FIRENZE;Toscana;Ospedale di Santa Maria Nuova;2014;2014-10-04T19:16:44Z;3111530034;11.2598805;43.7733027
FIRENZE;CITTA' METROPOLITANA DI FIRENZE;Toscana;Ospedale Piero Palagi;2014;2014-10-04T19:16:49Z;3111530402;11.2721172;43.7552524999999
FIRENZE;CITTA' METROPOLITANA DI FIRENZE;Toscana;Ospedale Santa Chiara;2011;2011-05-01T18:13:04Z;1268791137;11.2528887;43.7797546999999
GREVE IN CHIANTI;CITTA' METROPOLITANA DI FIRENZE;Toscana;Opsedale Rosa Libri;2011;2011-01-07T17:25:10Z;1088821976;11.3170544;43.5868968999999
PONTASSIEVE;CITTA' METROPOLITANA DI FIRENZE;Toscana;Dentist;2012;2012-09-29T19:36:07Z;1938471740;11.3923957999999;43.7909676
PONTASSIEVE;CITTA' METROPOLITANA DI FIRENZE;Toscana;Dentist;2012;2012-09-29T19:36:08Z;1938471753;11.3981224;43.7867814
REGGELLO;CITTA' METROPOLITANA DI FIRENZE;Toscana;;2013;2013-04-01T09:36:03Z;2241546770;11.4856143;43.6280259999999
SCANDICCI;CITTA' METROPOLITANA DI FIRENZE;Toscana;Humanitas;2012;2012-12-04T13:57:58Z;533694525;11.185848;43.7524276999999
SESTO FIORENTINO;CITTA' METROPOLITANA DI FIRENZE;Toscana;Azienda Usl 10 Di Firenze;2013;2013-10-05T12:00:21Z;2209929226;11.2051424;43.8318202
FIGLINE E INCISA VALDARNO;CITTA' METROPOLITANA DI FIRENZE;Toscana;;2010;2010-12-19T08:43:54Z;384732739;11.4772102;43.6143726
FIGLINE E INCISA VALDARNO;CITTA' METROPOLITANA DI FIRENZE;Toscana;Frate Sole;2013;2013-05-04T17:18:39Z;1047704499;11.4644949999999;43.6124127
FIGLINE E INCISA VALDARNO;CITTA' METROPOLITANA DI FIRENZE;Toscana;Ospedale Serristori;2013;2013-04-28T17:23:58Z;2284593680;11.4763664999999;43.6128999
FIGLINE E INCISA VALDARNO;CITTA' METROPOLITANA DI FIRENZE;Toscana;USL 20/b;2013;2013-04-28T17:24:56Z;2284594838;11.4768708;43.611727
BIBBONA;LIVORNO;Toscana;first aid (temp. Doctor);2014;2014-09-08T20:52:13Z;3053392453;10.5261020999999;43.2494193
MARCIANA MARINA;LIVORNO;Toscana;Guardia Medica - Medical Assistance;2014;2014-04-27T14:38:03Z;465614224;10.1965584;42.8065839
PIOMBINO;LIVORNO;Toscana;Villa Marina;2012;2012-05-16T18:01:23Z;1755087444;10.5108589;42.9397499
PORTO AZZURRO;LIVORNO;Toscana;Guardia Medica - Medical Assistance;2009;2009-08-13T19:03:01Z;464313412;10.3925251;42.766167
PORTOFERRAIO;LIVORNO;Toscana;;2009;2009-06-18T21:34:04Z;424383977;10.319724;42.8158783
CASCINA;PISA;Toscana;Guardia Medica;2013;2013-08-25T10:04:29Z;2430869207;10.5480705;43.6754339
CASCINA;PISA;Toscana;Studi Medici Associati;2012;2012-07-03T12:48:26Z;1811225653;10.4820691;43.6875521999999
CASTELFRANCO DI SOTTO;PISA;Toscana;Distretto socio-sanitario Galleno;2013;2013-06-21T13:51:56Z;2354813963;10.7179363;43.7734383
MONTECATINI VAL DI CECINA;PISA;Toscana;Guardia Medica;2013;2013-06-25T14:29:02Z;2360521272;10.7442943;43.3347866
PISA;PISA;Toscana;Casa di Cura San Rossore;2015;2015-06-04T18:36:53Z;1854247433;10.3751525;43.7243896
PISA;PISA;Toscana;Centro Medico;2013;2013-10-12T09:12:54Z;1798962277;10.4297048;43.6969536
PISA;PISA;Toscana;IRCCS Stella Maris;2011;2011-05-10T18:00:08Z;1279453276;10.2926132;43.6076826999999
PISA;PISA;Toscana;Pronto Soccorso;2015;2015-05-12T10:12:06Z;3512154941;10.4420062999999;43.7041741999999
SAN MINIATO;PISA;Toscana;;2011;2011-12-22T17:35:53Z;1558352065;10.8610905;43.6809555
TERRICCIOLA;PISA;Toscana;ASL 5 Unità Cure Primarie;2012;2012-03-10T08:54:59Z;1668362969;10.7017319;43.5404121999999
VECCHIANO;PISA;Toscana;Pronto Soccorso;2014;2014-02-15T18:43:09Z;2634502193;10.268302;43.7943076999999
BIBBIENA;AREZZO;Toscana;Ospedale del Casentino;2011;2011-08-09T13:35:27Z;1392433677;11.8203519;43.6991966
CORTONA;AREZZO;Toscana;"Ospedale della Valdichiana """"Santa Margherita""""";2013;2013-05-05T18:04:30Z;1601712730;11.9233604999999;43.2787239
MONTEVARCHI;AREZZO;Toscana;La Gruccia;2010;2010-05-10T22:22:14Z;729191106;11.5542070999999;43.5463207999999
SANSEPOLCRO;AREZZO;Toscana;;2012;2012-03-22T08:22:16Z;703139826;12.1534255;43.5712480999999
ABBADIA SAN SALVATORE;SIENA;Toscana;;2012;2012-10-14T09:21:36Z;1964160950;11.6737226;42.8821068999999
MONTEPULCIANO;SIENA;Toscana;Ospedali Riuniti Valdichiana Senese;2012;2012-04-13T20:25:47Z;1715089667;11.8258823;43.1189973999999
POGGIBONSI;SIENA;Toscana;Ospedale dell'Alta Val d'Elsa;2009;2009-12-26T13:40:21Z;263362557;11.1485238;43.4515356
TORRITA DI SIENA;SIENA;Toscana;Consultorio Antares;2013;2013-11-08T14:47:14Z;2524317095;11.7712469;43.1663094999999
GROSSETO;GROSSETO;Toscana;Infermeria;2015;2015-06-16T10:14:13Z;3598244294;11.0075093;42.7129124
GROSSETO;GROSSETO;Toscana;Ospedale della misericordia;2015;2015-07-28T12:21:17Z;755792646;11.1252189;42.7772203999999
GROSSETO;GROSSETO;Toscana;Pronto scoccorso;2015;2015-07-28T12:22:18Z;3670208706;11.12538;42.7758838999999
MASSA MARITTIMA;GROSSETO;Toscana;;2012;2012-10-13T12:48:08Z;1962503841;10.8901768;43.0427395999999
BASTIA;PERUGIA;Umbria;Centro ASL;2013;2013-08-24T02:14:23Z;2429716499;12.5571549;43.0668318
CITTA' DI CASTELLO;PERUGIA;Umbria;Ospedale di Città di Castello;2011;2011-12-14T08:43:35Z;703223321;12.2532186;43.4742692
FOLIGNO;PERUGIA;Umbria;Nuovo Ospedale San Giovanni Battista;2013;2013-06-26T11:23:21Z;912145480;12.6872607;42.9587009999999
PERUGIA;PERUGIA;Umbria;Clinica Liotti;2011;2011-11-02T23:12:16Z;1490046090;12.3809919;43.1129334
PERUGIA;PERUGIA;Umbria;Santa Maria della Misericordia;2014;2014-12-18T10:40:35Z;1576533901;12.3551991;43.0793338
UMBERTIDE;PERUGIA;Umbria;;2010;2010-05-20T10:37:51Z;740708584;12.3298203;43.3094252
UMBERTIDE;PERUGIA;Umbria;Ospedale Civile di Umbertide;2012;2012-03-05T13:01:53Z;1660262133;12.3270041;43.3096016
CASTEL VISCARDO;TERNI;Umbria;Asl;2014;2014-10-25T17:16:06Z;3149436864;12.0183022;42.7701769
NARNI;TERNI;Umbria;Presidio ospedaliero Narni;2014;2014-02-21T11:29:10Z;2683339413;12.5216236;42.5170644
ORVIETO;TERNI;Umbria;Ospedale Santa Maria della Stella;2014;2014-11-25T11:38:36Z;3204463936;12.1452659999999;42.7318943
SAN VENANZO;TERNI;Umbria;U.S.L. Distretto Socio Sanitario;2013;2013-11-25T12:16:32Z;2550482145;12.2640484;42.8666522999999
ACQUAPENDENTE;VITERBO;Lazio;Ospedale Santa Maria della Scala;2015;2015-11-26T10:14:03Z;1732954478;11.8653758;42.7458734
CAPRANICA;VITERBO;Lazio;Villa Paola;2008;2008-02-10T09:11:18Z;246965787;12.1728644;42.2590381999999
CIVITA CASTELLANA;VITERBO;Lazio;Ospedale Andosilla di Civita Castellana;2014;2014-05-01T03:34:29Z;490454523;12.4205738;42.2902745999999
ORTE;VITERBO;Lazio;Centro Salute Orte;2015;2015-05-25T21:17:30Z;1818883486;12.3843922;42.4604088
TARQUINIA;VITERBO;Lazio;;2015;2015-08-04T13:51:58Z;3680538082;11.7094812;42.2114143
TARQUINIA;VITERBO;Lazio;Ospedale;2013;2013-01-25T20:38:33Z;2128115697;11.759316;42.2500322
VITERBO;VITERBO;Lazio;Bel Colle;2013;2013-05-22T08:01:16Z;245879588;12.1234628;42.3942774
SCANDRIGLIA;RIETI;Lazio;Farmacia;2016;2016-01-19T14:12:26Z;3955223564;12.8437781999999;42.1641094
ALBANO LAZIALE;CITTA' METROPOLITANA DI ROMA CAPITALE;Lazio;Ospedale Regina Apostolorum;2012;2012-01-25T11:44:49Z;1602697582;12.6639206;41.7309316999999
ARICCIA;CITTA' METROPOLITANA DI ROMA CAPITALE;Lazio;;2012;2012-01-23T22:13:36Z;1602744969;12.6640601;41.7248103
ARICCIA;CITTA' METROPOLITANA DI ROMA CAPITALE;Lazio;Luigi Spolverini;2012;2012-02-17T02:14:46Z;902522337;12.6756106;41.7234825999999
BRACCIANO;CITTA' METROPOLITANA DI ROMA CAPITALE;Lazio;Ospedale Pubblico Padre Pio;2010;2010-09-14T10:36:30Z;911787320;12.1727931999999;42.0962476999999
GENZANO DI ROMA;CITTA' METROPOLITANA DI ROMA CAPITALE;Lazio;Istituto S.Giovanni Di Dio Fate Bene Fratelli;2010;2010-11-24T20:39:59Z;262336538;12.67488;41.7004242
GENZANO DI ROMA;CITTA' METROPOLITANA DI ROMA CAPITALE;Lazio;Ospedale de Santis;2010;2010-11-24T20:27:59Z;825972097;12.6786347999999;41.7041904
MONTEROTONDO;CITTA' METROPOLITANA DI ROMA CAPITALE;Lazio;Gonfalone;2012;2012-10-25T20:00:07Z;1983448219;12.6213514999999;42.0504578999999
MORLUPO;CITTA' METROPOLITANA DI ROMA CAPITALE;Lazio;Croce Rossa Morlupo;2014;2014-04-26T19:53:26Z;2819141133;12.4936349;42.1450363
NEMI;CITTA' METROPOLITANA DI ROMA CAPITALE;Lazio;Villa delle Querce;2010;2010-12-12T14:33:50Z;1035723052;12.7170153;41.7123557999999
PALOMBARA SABINA;CITTA' METROPOLITANA DI ROMA CAPITALE;Lazio;San Salvatore;2012;2012-04-08T14:56:33Z;799400828;12.7624967999999;42.0688096
ROCCA DI PAPA;CITTA' METROPOLITANA DI ROMA CAPITALE;Lazio;ASL;2015;2015-12-17T18:37:56Z;2440169911;12.7081994;41.7595966
ROMA;CITTA' METROPOLITANA DI ROMA CAPITALE;Lazio;ARES118;2012;2012-03-18T17:26:02Z;1196645632;12.4597917;41.8702420999999
ROMA;CITTA' METROPOLITANA DI ROMA CAPITALE;Lazio;ARES118;2012;2012-03-18T17:26:02Z;1196645632;12.4597917;41.8702420999999
ROMA;CITTA' METROPOLITANA DI ROMA CAPITALE;Lazio;Aurelia Hospital;2012;2012-01-31T13:45:25Z;434692525;12.3983943;41.8870756999999
ROMA;CITTA' METROPOLITANA DI ROMA CAPITALE;Lazio;Aurelia Hospital;2012;2012-01-31T13:45:25Z;434692525;12.3983943;41.8870756999999
ROMA;CITTA' METROPOLITANA DI ROMA CAPITALE;Lazio;Distretto di salute mentale A.S.L. Roma D;2014;2014-04-29T15:57:21Z;2824672193;12.2707897999999;41.7325012
ROMA;CITTA' METROPOLITANA DI ROMA CAPITALE;Lazio;Distretto di salute mentale A.S.L. Roma D;2014;2014-04-29T15:57:21Z;2824672193;12.2707897999999;41.7325012
ROMA;CITTA' METROPOLITANA DI ROMA CAPITALE;Lazio;I.F.O. Istituto Regina Elena e Istituto San Gall;2010;2010-07-06T22:43:15Z;804465318;12.4486445;41.8023637
ROMA;CITTA' METROPOLITANA DI ROMA CAPITALE;Lazio;I.F.O. Istituto Regina Elena e Istituto San Gall;2010;2010-07-06T22:43:15Z;804465318;12.4486445;41.8023637
ROMA;CITTA' METROPOLITANA DI ROMA CAPITALE;Lazio;Ospedale Israelitico;2009;2009-03-30T14:04:57Z;365299638;12.4284693;41.8357069999999
ROMA;CITTA' METROPOLITANA DI ROMA CAPITALE;Lazio;Ospedale Israelitico;2009;2009-03-30T14:04:57Z;365299638;12.4284693;41.8357069999999
ROMA;CITTA' METROPOLITANA DI ROMA CAPITALE;Lazio;Ospedale San Giovanni Battista;2013;2013-11-02T23:09:40Z;262114028;12.418452;41.8282625
ROMA;CITTA' METROPOLITANA DI ROMA CAPITALE;Lazio;Ospedale San Giovanni Battista;2013;2013-11-02T23:09:40Z;262114028;12.418452;41.8282625
ROMA;CITTA' METROPOLITANA DI ROMA CAPITALE;Lazio;Policlinico Tor Vergata;2011;2011-10-07T14:53:26Z;924590499;12.6309392;41.8575792999999
ROMA;CITTA' METROPOLITANA DI ROMA CAPITALE;Lazio;Policlinico Tor Vergata;2011;2011-10-07T14:53:26Z;924590499;12.6309392;41.8575792999999
ROMA;CITTA' METROPOLITANA DI ROMA CAPITALE;Lazio;Pronto Soccorso;2013;2013-05-23T14:45:29Z;248528643;12.5403769;41.9216283
ROMA;CITTA' METROPOLITANA DI ROMA CAPITALE;Lazio;Pronto Soccorso;2013;2013-05-23T14:45:29Z;248528643;12.5403769;41.9216283
ROMA;CITTA' METROPOLITANA DI ROMA CAPITALE;Lazio;Pronto Soccorso;2013;2013-05-24T09:10:23Z;2318096925;12.5102905;41.9070472
ROMA;CITTA' METROPOLITANA DI ROMA CAPITALE;Lazio;Pronto Soccorso;2013;2013-05-24T09:10:23Z;2318096925;12.5102905;41.9070472
ROMA;CITTA' METROPOLITANA DI ROMA CAPITALE;Lazio;Villa Sandra;2013;2013-04-03T12:30:47Z;428571538;12.4208257999999;41.8503399
ROMA;CITTA' METROPOLITANA DI ROMA CAPITALE;Lazio;Villa Sandra;2013;2013-04-03T12:30:47Z;428571538;12.4208257999999;41.8503399
ROMA;CITTA' METROPOLITANA DI ROMA CAPITALE;Lazio;Villa Stuart;2014;2014-08-22T13:00:36Z;3034658080;12.4504208999999;41.9277165
ROMA;CITTA' METROPOLITANA DI ROMA CAPITALE;Lazio;Villa Stuart;2014;2014-08-22T13:00:36Z;3034658080;12.4504208999999;41.9277165
ROMA;CITTA' METROPOLITANA DI ROMA CAPITALE;Lazio;Villa Tiberia;2012;2012-09-21T19:58:27Z;1925831648;12.5578965;41.9461639
ROMA;CITTA' METROPOLITANA DI ROMA CAPITALE;Lazio;Villa Tiberia;2012;2012-09-21T19:58:27Z;1925831648;12.5578965;41.9461639
TIVOLI;CITTA' METROPOLITANA DI ROMA CAPITALE;Lazio;San Giovanni Evangelista;2013;2013-02-11T17:50:10Z;748775623;12.8026335;41.9601200999999
VALMONTONE;CITTA' METROPOLITANA DI ROMA CAPITALE;Lazio;Croce Rossa;2011;2011-06-12T10:35:13Z;839208231;12.9209517;41.775094
LADISPOLI;CITTA' METROPOLITANA DI ROMA CAPITALE;Lazio;POSTAZIONE 118;2014;2014-06-28T09:54:52Z;2936704791;12.1269583;41.9333373999999
FIUMICINO;CITTA' METROPOLITANA DI ROMA CAPITALE;Lazio;Ospedale Pediatrico Bambin Gesu;2010;2010-03-06T18:28:55Z;251871299;12.1415678;41.9199926
APRILIA;LATINA;Lazio;;2014;2014-12-08T17:33:58Z;3225215833;12.6480248;41.5875208
GAETA;LATINA;Lazio;Sala Mortuaria;2015;2015-03-15T18:42:27Z;3400475533;13.5671298;41.2217872
PONZA;LATINA;Lazio;;2012;2012-06-22T09:33:22Z;1798000412;12.9565573;40.9095105
SEZZE;LATINA;Lazio;;2011;2011-10-15T14:53:07Z;1468299924;13.0625091999999;41.5001086999999
CASTEL VOLTURNO;CASERTA;Campania;Clinica Pineta Grande;2013;2013-12-02T16:09:03Z;1759748613;13.9530254;41.0177388999999
SOLOPACA;BENEVENTO;Campania;Covermark Point camouflage;2015;2015-09-30T19:37:13Z;3762483426;14.5483632;41.1923528
TELESE TERME;BENEVENTO;Campania;Fondazione Salvatore Maugeri;2011;2011-10-27T07:48:41Z;1482097122;14.5332206;41.2210554999999
AGEROLA;CITTA' METROPOLITANA DI NAPOLI;Campania;Guardia Medica;2013;2013-09-09T20:22:20Z;2452231029;14.5402099;40.6305120999999
ARZANO;CITTA' METROPOLITANA DI NAPOLI;Campania;Distretto Sanitario;2013;2013-09-19T17:00:47Z;2455948307;14.2602322;40.9108987999999
BOSCOTRECASE;CITTA' METROPOLITANA DI NAPOLI;Campania;Pronto Soccorso, presidio ospedaliero di Boscotr;2013;2013-04-02T16:09:06Z;2245070714;14.4524746;40.7671694
CAPRI;CITTA' METROPOLITANA DI NAPOLI;Campania;Ospedale G. Capilupi Capri;2010;2010-05-02T18:04:34Z;717588934;14.2368939999999;40.549795
FRATTAMINORE;CITTA' METROPOLITANA DI NAPOLI;Campania;Ospedale di Frattamaggiore San Giovanni di Dio;2010;2010-10-28T23:12:49Z;944699669;14.2714487;40.94798
GRAGNANO;CITTA' METROPOLITANA DI NAPOLI;Campania;;2014;2014-08-18T13:06:35Z;3024493627;14.5226138;40.6955371
ISCHIA;CITTA' METROPOLITANA DI NAPOLI;Campania;Istituto di Igiene mentale Buzziconia;2014;2014-07-29T14:01:09Z;2985999241;13.9469513;40.7421136
NAPOLI;CITTA' METROPOLITANA DI NAPOLI;Campania;AOU Federico II;2011;2011-03-01T15:06:31Z;1180796146;14.2192083999999;40.8687589999999
NAPOLI;CITTA' METROPOLITANA DI NAPOLI;Campania;Fatebenefratelli;2011;2011-12-27T15:51:36Z;1563719945;14.1999184;40.8153
NAPOLI;CITTA' METROPOLITANA DI NAPOLI;Campania;Santobono;2009;2009-07-05T22:27:44Z;434788443;14.2317081;40.848941
OTTAVIANO;CITTA' METROPOLITANA DI NAPOLI;Campania;Casa di cura Trusso;2014;2014-04-08T21:51:13Z;1457151225;14.4705151999999;40.848373
POLLENA TROCCHIA;CITTA' METROPOLITANA DI NAPOLI;Campania;Presidio Sanitario Apicella;2015;2015-10-28T23:14:15Z;3807622459;14.375031;40.8519028999999
PORTICI;CITTA' METROPOLITANA DI NAPOLI;Campania;Guardia medica;2013;2013-05-19T15:54:47Z;2311452925;14.3448227999999;40.8154946
PROCIDA;CITTA' METROPOLITANA DI NAPOLI;Campania;Ospedale Civile Albano Francescano;2009;2009-10-20T12:02:50Z;536513332;14.0214450999999;40.7604388999999
SAN GENNARO VESUVIANO;CITTA' METROPOLITANA DI NAPOLI;Campania;Casa di cura La Madonnina;2014;2014-04-17T17:57:46Z;2778473426;14.5274927;40.8602336
SAN GIUSEPPE VESUVIANO;CITTA' METROPOLITANA DI NAPOLI;Campania;Clinica Santa Lucia;2011;2011-10-11T10:32:10Z;1462176201;14.4998188999999;40.8329737999999
VICO EQUENSE;CITTA' METROPOLITANA DI NAPOLI;Campania;Ospedale De Luca e Rossano;2012;2012-02-14T19:49:31Z;686531791;14.4262087;40.6608317
MONTELLA;AVELLINO;Campania;Misericordia Montella;2013;2013-07-26T10:12:54Z;1436186943;15.0269470999999;40.8402059
BATTIPAGLIA;SALERNO;Campania;Clinica Salus;2011;2011-12-17T18:32:33Z;1105817999;14.9923189;40.6056938999999
BATTIPAGLIA;SALERNO;Campania;Santa Maria della Speranza;2011;2011-01-14T11:34:12Z;1089138199;14.9727736999999;40.6150969999999
BUONABITACOLO;SALERNO;Campania;Guardia Medica;2013;2013-04-05T22:57:40Z;2251338911;15.6222271;40.2699374
CAVA DE' TIRRENI;SALERNO;Campania;;2014;2014-10-16T20:43:28Z;3134153141;14.7108969;40.6948646999999
CELLE DI BULGHERIA;SALERNO;Campania;Guardia Medica;2013;2013-10-24T08:39:33Z;1704258810;15.4056887;40.0948555
EBOLI;SALERNO;Campania;Campolongo Hospital;2011;2011-01-23T19:28:25Z;1107808246;14.9216431;40.5241118
OLIVETO CITRA;SALERNO;Campania;San Francesco D'Assisi;2011;2011-03-22T13:13:29Z;1089165860;15.2364827;40.6909374
PADULA;SALERNO;Campania;Clinica Fischietti;2013;2013-04-05T22:58:41Z;2251342126;15.6500094;40.2935810999999
PETINA;SALERNO;Campania;Guardia medica;2015;2015-04-06T18:53:01Z;3441511946;15.3732292;40.5327461999999
POLLA;SALERNO;Campania;"Ospedaliero """"Luigi Curto""""";2015;2015-05-10T10:15:22Z;3508293448;15.5001764;40.5178228999999
RAVELLO;SALERNO;Campania;Amalfi Coast Hospital;2012;2012-12-31T11:00:51Z;2089784335;14.6123181;40.6383873999999
ROCCADASPIDE;SALERNO;Campania;Distretto ASL SA3 di Roccadaspide;2011;2011-04-11T22:57:10Z;546428302;15.1921281;40.4256661
ROCCADASPIDE;SALERNO;Campania;Ospedale di Roccadaspide;2011;2011-04-11T22:57:10Z;450198361;15.1941453;40.424833
TORCHIARA;SALERNO;Campania;Guardia Medica;2014;2014-04-21T16:24:35Z;2806634148;15.0609385;40.3179104
CASTEL DEL MONTE;L'AQUILA;Abruzzo;Ambulatorio Medico;2014;2014-04-01T19:47:26Z;2725529566;13.725294;42.365135
CASTEL DI SANGRO;L'AQUILA;Abruzzo;Presidio Ospedaliero;2011;2011-11-10T15:03:09Z;1497306398;14.1166386;41.7760322999999
L'AQUILA;L'AQUILA;Abruzzo;San Salvatore;2013;2013-09-15T15:55:46Z;309825644;13.3536138999999;42.3668122999999
L'AQUILA;L'AQUILA;Abruzzo;Villa Letizia;2015;2015-10-07T12:57:12Z;3776497182;13.2955887;42.3761911
PESCOCOSTANZO;L'AQUILA;Abruzzo;Guardia Medica;2014;2014-07-10T07:33:50Z;2956884002;14.0648765;41.8869941
PRATOLA PELIGNA;L'AQUILA;Abruzzo;Croce Verde;2012;2012-01-25T01:01:24Z;1604313268;13.8715157;42.0958985999999
SULMONA;L'AQUILA;Abruzzo;"Ospedale Civile """"SS. Annunziata""""";2015;2015-11-14T10:09:57Z;1389962789;13.9325361;42.0385175999999
SILVI;TERAMO;Abruzzo;Presidio sanitario Silvi;2014;2014-07-27T13:09:20Z;2962649633;14.0955482;42.5757668999999
PENNE;PESCARA;Abruzzo;;2008;2008-11-25T22:42:54Z;314756569;13.9190536999999;42.4503197
PESCARA;PESCARA;Abruzzo;"Casa di Cura Privata """"Pierangeli""""";2010;2010-05-06T23:07:41Z;414248160;14.1990094;42.4622154999999
POPOLI;PESCARA;Abruzzo;;2010;2010-09-17T22:15:21Z;916151644;13.8274298;42.1763517999999
CHIETI;CHIETI;Abruzzo;Ospedale Clinicizzato Ss. Annunziata;2013;2013-01-13T21:21:23Z;283246152;14.1531745;42.3659729
CAMPOBASSO;CAMPOBASSO;Molise;Ospedale Antonio Cardarelli;2014;2014-08-25T17:12:24Z;2774114656;14.622096;41.5479965
CAMPOBASSO;CAMPOBASSO;Molise;Pronto Soccorso;2015;2015-03-13T21:12:43Z;2672544500;14.6230189;41.5483807999999
CASTELNUOVO DELLA DAUNIA;FOGGIA;Puglia;Clinica De Luca;2013;2013-05-01T21:31:44Z;2288509818;15.1126501;41.5781265999999
CERIGNOLA;FOGGIA;Puglia;Tatarella;2012;2012-07-31T15:43:56Z;293551107;15.9188158;41.2721098
FOGGIA;FOGGIA;Puglia;;2010;2010-01-20T15:32:49Z;617182522;15.5238564;41.4578484999999
FOGGIA;FOGGIA;Puglia;;2012;2012-09-02T08:09:07Z;351138881;15.5243927999999;41.4557337999999
FOGGIA;FOGGIA;Puglia;"Casa Divina Provvidenza """"Don Uva""""";2010;2010-07-28T07:18:30Z;836076221;15.5281264;41.4695046
FOGGIA;FOGGIA;Puglia;Clinica Colonnello D'Avanzo;2009;2009-02-24T11:31:48Z;351142744;15.5454797;41.4535564999999
LESINA;FOGGIA;Puglia;Pronto Soccorso Estivo;2011;2011-04-12T05:55:47Z;1241563267;15.3374535;41.9079112
LUCERA;FOGGIA;Puglia;;2009;2009-06-25T23:06:36Z;429375430;15.3309558;41.5132047
MONTE SANT'ANGELO;FOGGIA;Puglia;;2010;2010-07-08T11:05:10Z;806505348;15.9699458;41.7055842999999
SAN MARCO IN LAMIS;FOGGIA;Puglia;Ospedale di San Marco in Lamis;2013;2013-05-06T13:53:26Z;2293620765;15.6410544;41.712051
SANNICANDRO GARGANICO;FOGGIA;Puglia;a.s.l.fg;2013;2013-02-16T06:25:13Z;2156948851;15.5765802;41.8316439
SAN SEVERO;FOGGIA;Puglia;Ospedale Teresa Masselli Mascia;2011;2011-04-10T21:49:35Z;1240376403;15.3866207999999;41.6905298
SAN SEVERO;FOGGIA;Puglia;Ospedale Teresa Masselli Mascia;2011;2011-04-10T21:49:37Z;1240376442;15.3831875999999;41.6896484999999
VIESTE;FOGGIA;Puglia;;2009;2009-11-07T22:07:09Z;534609447;16.1620513;41.8767422999999
BARI;CITTA' METROPOLITANA DI BARI;Puglia;Ambulatorio medico - Croce Rossa Italiana;2013;2013-09-28T10:00:09Z;1433747566;16.8410082999999;41.1362237
BARI;CITTA' METROPOLITANA DI BARI;Puglia;Ambulatorio Primo Soccorso - First Aid - Croce R;2013;2013-09-22T09:58:00Z;1412486593;16.7642512;41.1344701
BARI;CITTA' METROPOLITANA DI BARI;Puglia;ex C.T.O;2013;2013-01-22T13:41:29Z;616872053;16.8431138999999;41.1362618
BARI;CITTA' METROPOLITANA DI BARI;Puglia;First Aid - university;2013;2013-01-22T17:24:34Z;2124054724;16.8687365;41.1200706999999
BARI;CITTA' METROPOLITANA DI BARI;Puglia;Mater Dei;2011;2011-05-19T14:20:16Z;1291624453;16.8855399;41.0979427999999
BARI;CITTA' METROPOLITANA DI BARI;Puglia;Prontosoccorso policlinico;2015;2015-12-03T11:57:27Z;3874499030;16.8573930999999;41.1130830999999
GIOIA DEL COLLE;CITTA' METROPOLITANA DI BARI;Puglia;Centro Nazionale Riabilitativo per Hanseniani;2013;2013-02-01T14:43:27Z;2137514980;16.8217375;40.7423361
GRAVINA IN PUGLIA;CITTA' METROPOLITANA DI BARI;Puglia;Guardia Medica;2015;2015-02-16T14:40:16Z;3354040309;16.4209533;40.8169898
GRAVINA IN PUGLIA;CITTA' METROPOLITANA DI BARI;Puglia;Pronto Soccorso;2015;2015-02-10T18:06:48Z;3342451831;16.4207353;40.8170746999999
POLIGNANO A MARE;CITTA' METROPOLITANA DI BARI;Puglia;Punto di primo intervento;2012;2012-07-19T09:45:13Z;567243847;17.2253763999999;40.9932633
RUVO DI PUGLIA;CITTA' METROPOLITANA DI BARI;Puglia;;2009;2009-12-20T18:47:03Z;597396898;16.4872419999999;41.1201512
RUVO DI PUGLIA;CITTA' METROPOLITANA DI BARI;Puglia;Diagnostica s.r.l.;2015;2015-05-22T21:31:35Z;3536974724;16.4847086;41.1183678
SAMMICHELE DI BARI;CITTA' METROPOLITANA DI BARI;Puglia;Guardia Medica;2013;2013-08-31T11:30:33Z;2393726733;16.9536635999999;40.8912005999999
TERLIZZI;CITTA' METROPOLITANA DI BARI;Puglia;Pronto Soccorso;2008;2008-12-31T16:19:21Z;323970296;16.5344082;41.1311840999999
TRIGGIANO;CITTA' METROPOLITANA DI BARI;Puglia;"Ospedale """"Francesca Fallacara""""";2013;2013-01-15T19:13:05Z;1443084160;16.9265578;41.0668511
TRIGGIANO;CITTA' METROPOLITANA DI BARI;Puglia;"Ospedale """"Francesca Fallacara"""" Padiglione Nord";2013;2013-01-15T19:13:05Z;1443084176;16.9256694;41.0676447999999
CASTELLANETA;TARANTO;Puglia;Ospedale castellaneta;2014;2014-04-22T11:54:58Z;2808373547;16.9344983999999;40.6343675
GROTTAGLIE;TARANTO;Puglia;ASL;2013;2013-11-08T10:38:12Z;2454234307;17.4369438;40.546253
GROTTAGLIE;TARANTO;Puglia;Pronto Soccorso 118;2013;2013-07-05T09:38:27Z;2374710402;17.4261942;40.5389849999999
MARTINA FRANCA;TARANTO;Puglia;Civile di Martina Franca;2010;2010-01-09T13:08:35Z;590052359;17.3436248999999;40.7058443
TARANTO;TARANTO;Puglia;Ospedale Militare Marittimo;2011;2011-07-28T13:30:20Z;1376709969;17.2478859;40.473025
TARANTO;TARANTO;Puglia;Ospedale Militare Marittimo;2011;2011-07-28T13:30:20Z;1376709969;17.2478859;40.473025
STATTE;TARANTO;Puglia;Ospedale G. Moscati;2011;2011-07-27T13:46:50Z;1375792171;17.2769765;40.5390474
LATIANO;BRINDISI;Puglia;guardia medica;2013;2013-01-06T10:12:44Z;2097713322;17.7098434;40.5502857
SAN DONACI;BRINDISI;Puglia;;2012;2012-07-03T13:16:24Z;1811247846;17.9223843999999;40.4484835
GALATINA;LECCE;Puglia;Clinica S. Francesco;2013;2013-02-14T17:51:38Z;2154757521;18.1666193;40.1730550999999
GALLIPOLI;LECCE;Puglia;"Ospedale """"Sacro Cuore""""";2011;2011-07-05T13:25:10Z;1350293449;18.0151121;40.0564461
LECCE;LECCE;Puglia;Clinica Petrucciani;2014;2014-11-09T15:27:51Z;2347705644;18.1967463999999;40.3556213999999
NARDO';LECCE;Puglia;Ospedale Civile Giuseppe Sambiasi;2011;2011-04-04T10:10:56Z;966256936;18.0345763;40.1721508999999
SALICE SALENTINO;LECCE;Puglia;Poliambulatorio San Francesco;2013;2013-10-22T00:25:11Z;2504509546;17.9661371999999;40.379654
TREPUZZI;LECCE;Puglia;118;2015;2015-12-30T15:35:37Z;3918739670;18.1220150999999;40.4968918
FORENZA;POTENZA;Basilicata;Pronto Soccorso;2014;2014-11-30T22:56:08Z;3213388604;15.859678;40.8566761
POTENZA;POTENZA;Basilicata;Croce Rossa Italiana;2015;2015-09-11T15:00:29Z;3739240400;15.8286253;40.6483515999999
SENISE;POTENZA;Basilicata;ASL;2014;2014-10-13T10:17:43Z;3127463474;16.2891252;40.147868
VENOSA;POTENZA;Basilicata;;2009;2009-05-11T23:17:17Z;394140270;15.8083677999999;40.9596147
MATERA;MATERA;Basilicata;Guardia Medica;2013;2013-10-26T15:06:30Z;2506049647;16.5893672;40.6782115999999
PISTICCI;MATERA;Basilicata;Ospedale di Tinchi;2013;2013-09-02T12:16:29Z;2442861478;16.6476907999999;40.3604071999999
TRICARICO;MATERA;Basilicata;;2016;2016-01-02T11:10:52Z;3923334792;16.148695;40.6180062999999
ACRI;COSENZA;Calabria;Presidio ospedalaliere Beato Angelo;2014;2014-03-11T10:01:50Z;2358340869;16.3893333;39.4914873
CAMPANA;COSENZA;Calabria;;2012;2012-12-09T00:08:41Z;2056879089;16.8291751;39.4123899
COSENZA;COSENZA;Calabria;Pronto Soccorso;2011;2011-08-22T22:31:01Z;1409086932;16.2490369;39.2930342
LUZZI;COSENZA;Calabria;Poliambulatorio;2014;2014-05-20T17:34:18Z;2272013482;16.2869891;39.4485466
PRAIA A MARE;COSENZA;Calabria;;2014;2014-10-17T09:52:12Z;3134830524;15.7801509;39.9175627999999
SAN FILI;COSENZA;Calabria;Casa di cura Villa Igea;2015;2015-08-20T17:38:26Z;3706948465;16.1544631999999;39.3443571999999
SAN GIOVANNI IN FIORE;COSENZA;Calabria;Pronto soccorso;2012;2012-08-12T19:53:27Z;1863503079;16.6978337;39.2508770999999
VILLAPIANA;COSENZA;Calabria;Farmacia D.ssa De Franco Rosa;2015;2015-06-28T20:46:15Z;3623935700;16.4550118;39.8450475
MAIDA;CATANZARO;Calabria;Ambulatorio Medico;2015;2015-11-29T21:49:55Z;2549611958;16.4076752;38.8887683
LOCRI;CITTA' METROPOLITANA DI REGGIO CALABRIA;Calabria;Ospedale di Locri;2009;2009-09-21T09:12:58Z;447451624;16.2451443;38.2355114
PALMI;CITTA' METROPOLITANA DI REGGIO CALABRIA;Calabria;Guardia Medica;2012;2012-04-15T11:46:13Z;1717736577;15.8653719;38.3978575
PAZZANO;CITTA' METROPOLITANA DI REGGIO CALABRIA;Calabria;Guardia Medica;2013;2013-04-21T11:03:12Z;1667062959;16.4533866;38.4746747
POLISTENA;CITTA' METROPOLITANA DI REGGIO CALABRIA;Calabria;"Presidio Ospedaliero """"Santa Maria degli Unghere";2014;2014-04-01T12:39:37Z;2758237665;16.0763122;38.4096412
TAURIANOVA;CITTA' METROPOLITANA DI REGGIO CALABRIA;Calabria;Ospedale di Taurianova;2011;2011-11-02T17:06:19Z;1362136151;16.0060956999999;38.3530828
TAURIANOVA;CITTA' METROPOLITANA DI REGGIO CALABRIA;Calabria;Veterinario;2013;2013-08-25T16:27:54Z;2431244667;16.0146249;38.350867
ALCAMO;TRAPANI;Sicilia;"Ospedale """"San Vito e Santo Spirito""""";2011;2011-11-15T09:15:34Z;1503692847;12.9605762;37.9822825999999
PACECO;TRAPANI;Sicilia;;2012;2012-10-13T01:40:44Z;1962100566;12.5596843;37.9850618999999
ALIA;CITTA' METROPOLITANA DI PALERMO;Sicilia;;2012;2012-06-21T12:33:05Z;1796961952;13.7162107;37.7823009
BAGHERIA;CITTA' METROPOLITANA DI PALERMO;Sicilia;poliambulatorio USL;2012;2012-11-17T17:58:18Z;1879138982;13.510396;38.0846556999999
BAGHERIA;CITTA' METROPOLITANA DI PALERMO;Sicilia;Punto di primo intervento;2015;2015-06-01T11:28:26Z;3563294320;13.5138631999999;38.0858904999999
BAGHERIA;CITTA' METROPOLITANA DI PALERMO;Sicilia;USL medicina di base;2012;2012-11-17T18:52:29Z;2018466720;13.5135612999999;38.0848543
BAGHERIA;CITTA' METROPOLITANA DI PALERMO;Sicilia;USL servizio veterinario;2012;2012-11-17T18:52:29Z;2018466722;13.5134352;38.0848415
CEFALU';CITTA' METROPOLITANA DI PALERMO;Sicilia;;2013;2013-09-16T22:00:20Z;2460987631;14.0121306;38.0281515
CEFALU';CITTA' METROPOLITANA DI PALERMO;Sicilia;Pronto Soccorso;2015;2015-01-19T08:56:32Z;3298106707;14.0125629;38.0282211
CORLEONE;CITTA' METROPOLITANA DI PALERMO;Sicilia;ASP office;2016;2016-01-27T12:28:41Z;3970918223;13.2973239;37.8166279
CORLEONE;CITTA' METROPOLITANA DI PALERMO;Sicilia;Hospital;2016;2016-01-27T12:29:25Z;3970921973;13.2985349999999;37.8167011999999
GERACI SICULO;CITTA' METROPOLITANA DI PALERMO;Sicilia;Medical Assistance;2015;2015-04-07T08:41:31Z;3442497762;14.1543654;37.8579286
PALERMO;CITTA' METROPOLITANA DI PALERMO;Sicilia;Casa di cura Demma;2016;2016-01-12T22:36:17Z;3942565372;13.3431618;38.1214998
PALERMO;CITTA' METROPOLITANA DI PALERMO;Sicilia;Casa di cura NOTO Pasqualino;2016;2016-01-12T22:36:17Z;3942564368;13.3436821;38.1218922999999
PETRALIA SOTTANA;CITTA' METROPOLITANA DI PALERMO;Sicilia;"Ospedale """"Madonna dell'Alto""""";2011;2011-11-21T18:52:25Z;1511807213;14.091151;37.8187168999999
POLLINA;CITTA' METROPOLITANA DI PALERMO;Sicilia;Guardia Medica Finale;2013;2013-04-12T09:29:54Z;2264288522;14.1623265;38.0191672999999
SAN GIUSEPPE JATO;CITTA' METROPOLITANA DI PALERMO;Sicilia;guardia medica;2015;2015-12-03T16:07:49Z;3874635259;13.1810873;37.9672689
LIPARI;CITTA' METROPOLITANA DI MESSINA;Sicilia;Ambulance;2010;2010-05-30T15:22:40Z;759589649;14.9572284;38.4159251
LIPARI;CITTA' METROPOLITANA DI MESSINA;Sicilia;Centro Diriabilitazione Neuropsicomotoria;2013;2013-05-25T22:53:10Z;2320159644;14.9671983999999;38.4860295
MESSINA;CITTA' METROPOLITANA DI MESSINA;Sicilia;Casa di Cura Villa Igea;2013;2013-11-01T14:24:00Z;1665759739;15.5399096;38.1667064999999
MESSINA;CITTA' METROPOLITANA DI MESSINA;Sicilia;Ospedale Papardo;2014;2014-03-29T14:14:31Z;1647430093;15.5967591999999;38.2638655
MESSINA;CITTA' METROPOLITANA DI MESSINA;Sicilia;Villa Salus;2012;2012-03-17T15:12:19Z;1678302426;15.5493963999999;38.1995864
SAN PIERO PATTI;CITTA' METROPOLITANA DI MESSINA;Sicilia;P. T. E.;2015;2015-08-17T13:24:21Z;3120527367;14.9678948;38.0515857999999
AGRIGENTO;AGRIGENTO;Sicilia;Ambulatorio medico;2013;2013-09-17T19:38:04Z;2341948097;13.5530913;37.3280666
AGRIGENTO;AGRIGENTO;Sicilia;Servizio continuità assistenziale (ex Guardia M;2016;2016-01-08T01:36:49Z;2142455389;13.5934218;37.2689196999999
AGRIGENTO;AGRIGENTO;Sicilia;Servizio continuità assistenziale (ex Guardia M;2016;2016-01-08T01:36:52Z;2142455406;13.5170852;37.3536074
AGRIGENTO;AGRIGENTO;Sicilia;Servizio continuità assistenziale (ex Guardia M;2016;2016-01-08T01:36:52Z;2176931644;13.6079157;37.352611
ALESSANDRIA DELLA ROCCA;AGRIGENTO;Sicilia;Servizio continuità assistenziale (ex Guardia M;2016;2016-01-08T01:36:55Z;2142455468;13.4544162;37.570602
ARAGONA;AGRIGENTO;Sicilia;Servizio continuità assistenziale (ex Guardia M;2016;2016-01-08T01:36:53Z;2142455414;13.6156551;37.4059006
BIVONA;AGRIGENTO;Sicilia;Servizio continuità assistenziale (ex Guardia M;2016;2016-01-08T01:36:57Z;2142455475;13.4396524999999;37.6165327
BURGIO;AGRIGENTO;Sicilia;Servizio continuità assistenziale (ex Guardia M;2016;2016-01-08T01:36:56Z;2142455473;13.2866786;37.6003547999999
CALTABELLOTTA;AGRIGENTO;Sicilia;Servizio continuità assistenziale (ex Guardia M;2016;2016-01-08T01:36:55Z;2142455467;13.2343965;37.5596825
CALTABELLOTTA;AGRIGENTO;Sicilia;Servizio continuità assistenziale (ex Guardia M;2016;2016-01-08T01:36:56Z;2142455469;13.2140257;37.5739076999999
CAMASTRA;AGRIGENTO;Sicilia;Servizio continuità assistenziale (ex Guardia M;2016;2016-01-08T01:36:49Z;2142455387;13.7927189;37.2540022
CAMPOBELLO DI LICATA;AGRIGENTO;Sicilia;Servizio continuità assistenziale (ex Guardia M;2016;2016-01-08T01:36:49Z;2142455386;13.9147367;37.2511372
CANICATTI';AGRIGENTO;Sicilia;Servizio continuità assistenziale (ex Guardia M;2016;2016-01-08T01:36:52Z;2142455407;13.8530953;37.3596624999999
CASTELTERMINI;AGRIGENTO;Sicilia;Servizio continuità assistenziale (ex Guardia M;2016;2016-01-08T01:36:55Z;2142455466;13.6374496;37.5395947
CASTROFILIPPO;AGRIGENTO;Sicilia;Servizio continuità assistenziale (ex Guardia M;2016;2016-01-08T01:36:51Z;2142455405;13.7500024;37.3482971
CATTOLICA ERACLEA;AGRIGENTO;Sicilia;Servizio continuità assistenziale (ex Guardia M;2016;2016-01-08T01:36:52Z;2142455409;13.2853604999999;37.3933687999999
CATTOLICA ERACLEA;AGRIGENTO;Sicilia;Servizio continuità assistenziale (ex Guardia M;2016;2016-01-08T01:36:54Z;2142455418;13.3887674;37.4409684
CIANCIANA;AGRIGENTO;Sicilia;Servizio continuità assistenziale (ex Guardia M;2016;2016-01-08T01:36:55Z;2142455465;13.4356313;37.5201866999999
COMITINI;AGRIGENTO;Sicilia;Servizio continuità assistenziale (ex Guardia M;2016;2016-01-08T01:36:53Z;2142455415;13.6433857;37.4078816999999
FAVARA;AGRIGENTO;Sicilia;Servizio continuità assistenziale (ex Guardia M;2016;2016-01-08T01:36:51Z;2142455398;13.6536475;37.3134043
JOPPOLO GIANCAXIO;AGRIGENTO;Sicilia;Servizio continuità assistenziale (ex Guardia M;2016;2016-01-08T01:36:52Z;2142455408;13.5525482;37.3870937
LAMPEDUSA E LINOSA;AGRIGENTO;Sicilia;Servizio continuità assistenziale (ex Guardia M;2016;2016-01-08T01:36:48Z;2142455381;12.8631898;35.858643
LICATA;AGRIGENTO;Sicilia;Servizio continuità assistenziale (ex Guardia M;2016;2016-01-08T01:36:48Z;2142455382;13.9265338;37.1071642
LICATA;AGRIGENTO;Sicilia;Servizio continuità assistenziale (ex Guardia M;2016;2016-01-08T01:36:48Z;2142455383;13.9803119;37.1114758
LUCCA SICULA;AGRIGENTO;Sicilia;Servizio continuità assistenziale (ex Guardia M;2016;2016-01-08T01:36:56Z;2142455471;13.3061624;37.5782516
MENFI;AGRIGENTO;Sicilia;Servizio continuità assistenziale (ex Guardia M;2016;2016-01-08T01:36:56Z;2142455474;12.9739600999999;37.6016844
MONTALLEGRO;AGRIGENTO;Sicilia;Servizio continuità assistenziale (ex Guardia M;2016;2016-01-08T01:36:52Z;2142455410;13.3510849999999;37.3958092
MONTEVAGO;AGRIGENTO;Sicilia;Servizio continuità assistenziale (ex Guardia M;2016;2016-01-08T01:36:58Z;2142455480;12.9852513999999;37.7051795
NARO;AGRIGENTO;Sicilia;Servizio continuità assistenziale (ex Guardia M;2016;2016-01-08T01:36:50Z;2142455391;13.79851;37.2890088999999
PALMA DI MONTECHIARO;AGRIGENTO;Sicilia;Servizio continuità assistenziale (ex Guardia M;2016;2016-01-08T01:36:48Z;2142455384;13.7174271999999;37.1723057
PALMA DI MONTECHIARO;AGRIGENTO;Sicilia;Servizio continuità assistenziale (ex Guardia M;2016;2016-01-08T01:36:49Z;2142455385;13.7733633999999;37.1870127999999
PORTO EMPEDOCLE;AGRIGENTO;Sicilia;Servizio continuità assistenziale (ex Guardia M;2016;2016-01-08T01:36:50Z;2142455390;13.5287427;37.2884257999999
PORTO EMPEDOCLE;AGRIGENTO;Sicilia;Servizio continuità assistenziale (ex Guardia M;2016;2016-01-08T01:36:50Z;2142455395;13.4945932;37.2897575
RACALMUTO;AGRIGENTO;Sicilia;Servizio continuità assistenziale (ex Guardia M;2016;2016-01-08T01:36:53Z;2142455412;13.7058705;37.4035927999999
RACALMUTO;AGRIGENTO;Sicilia;Servizio continuità assistenziale (ex Guardia M;2016;2016-01-08T01:36:53Z;2142455413;13.7389367999999;37.4050346
RAFFADALI;AGRIGENTO;Sicilia;Servizio continuità assistenziale (ex Guardia M;2016;2016-01-08T01:36:53Z;2142455411;13.5352809999999;37.4007318999999
RAVANUSA;AGRIGENTO;Sicilia;Servizio continuità assistenziale (ex Guardia M;2016;2016-01-08T01:36:49Z;2142455388;13.9662311;37.2673308999999
REALMONTE;AGRIGENTO;Sicilia;Servizio continuità assistenziale (ex Guardia M;2016;2016-01-08T01:36:51Z;2142455397;13.4627172;37.3062667
REALMONTE;AGRIGENTO;Sicilia;Servizio continuità assistenziale (ex Guardia M;2016;2016-02-07T17:05:53Z;2142455396;13.4560229;37.2968515
RIBERA;AGRIGENTO;Sicilia;Servizio continuità assistenziale (ex Guardia M;2016;2016-01-08T01:36:54Z;2142455417;13.2381521;37.4338014
RIBERA;AGRIGENTO;Sicilia;Servizio continuità assistenziale (ex Guardia M;2016;2016-01-08T01:36:54Z;2142455437;13.2689317;37.4917425
SAMBUCA DI SICILIA;AGRIGENTO;Sicilia;Servizio continuità assistenziale (ex Guardia M;2016;2016-01-08T01:36:57Z;2142455478;13.1217065;37.6590520999999
SAN BIAGIO PLATANI;AGRIGENTO;Sicilia;Servizio continuità assistenziale (ex Guardia M;2016;2016-01-08T01:36:55Z;2142455446;13.5244830999999;37.5070476
SAN GIOVANNI GEMINI;AGRIGENTO;Sicilia;Servizio continuità assistenziale (ex Guardia M;2016;2016-01-08T01:36:57Z;2142455477;13.641061;37.6287694999999
SANTA ELISABETTA;AGRIGENTO;Sicilia;Servizio continuità assistenziale (ex Guardia M;2016;2016-01-08T01:36:54Z;2142455416;13.5557476;37.4309259999999
SANTA MARGHERITA DI BELICE;AGRIGENTO;Sicilia;Servizio continuità assistenziale (ex Guardia M;2016;2016-01-08T01:36:57Z;2142455479;13.0178242999999;37.6902271
SANT'ANGELO MUXARO;AGRIGENTO;Sicilia;Servizio continuità assistenziale (ex Guardia M;2016;2016-01-08T01:36:54Z;2142455433;13.5431489;37.4796424999999
SANTO STEFANO QUISQUINA;AGRIGENTO;Sicilia;Servizio continuità assistenziale (ex Guardia M;2016;2016-01-08T01:36:57Z;2142455476;13.4914137;37.6257647999999
SICULIANA;AGRIGENTO;Sicilia;Servizio continuità assistenziale (ex Guardia M;2016;2016-01-08T01:36:51Z;2142455403;13.4266387;37.3368226999999
VILLAFRANCA SICULA;AGRIGENTO;Sicilia;Servizio continuità assistenziale (ex Guardia M;2016;2016-01-08T01:36:56Z;2142455472;13.2907182;37.5868619
CALTANISSETTA;CALTANISSETTA;Sicilia;Ospedale San Elia;2014;2014-03-12T09:15:10Z;2713620698;14.031268;37.4904604999999
ENNA;ENNA;Sicilia;Umberto 1°;2012;2012-08-20T17:08:40Z;529486348;14.3016159;37.5538206
PIAZZA ARMERINA;ENNA;Sicilia;Ospedale Michele Chiello;2012;2012-03-07T18:45:35Z;1664732380;14.3778352999999;37.3980058
VILLAROSA;ENNA;Sicilia;;2016;2016-02-12T15:22:00Z;1819438513;14.1674527;37.5881814
ACI CASTELLO;CITTA' METROPOLITANA DI CATANIA;Sicilia;Guardia Medica;2013;2013-08-09T18:22:03Z;2412380560;15.1435147;37.5557462
ADRANO;CITTA' METROPOLITANA DI CATANIA;Sicilia;;2010;2010-04-13T18:20:48Z;471508926;14.8361234999999;37.6627993
BIANCAVILLA;CITTA' METROPOLITANA DI CATANIA;Sicilia;;2009;2009-08-10T13:40:15Z;460454172;14.8710676;37.6463362
CALTAGIRONE;CITTA' METROPOLITANA DI CATANIA;Sicilia;Gravina;2008;2008-11-17T00:46:08Z;312672489;14.5161653;37.2229377999999
CATANIA;CITTA' METROPOLITANA DI CATANIA;Sicilia;NAS Sigonella Hospital;2012;2012-10-10T12:34:36Z;1956584790;14.961779;37.4589938
NICOLOSI;CITTA' METROPOLITANA DI CATANIA;Sicilia;Analisi Service;2015;2015-10-30T11:25:31Z;3809824961;15.0266296;37.6132928999999
PEDARA;CITTA' METROPOLITANA DI CATANIA;Sicilia;AUSL3 Azienda Unità Sanitaria Locale;2011;2011-04-11T12:01:50Z;1240849873;15.0648021;37.6132458
VALVERDE;CITTA' METROPOLITANA DI CATANIA;Sicilia;Guardia Medica;2015;2015-03-17T17:13:36Z;3404194550;15.1200057;37.5763790999999
ZAFFERANA ETNEA;CITTA' METROPOLITANA DI CATANIA;Sicilia;Guardia medica;2011;2011-04-28T21:11:44Z;1214187752;15.1071161;37.6925516
RAGUSA;RAGUSA;Sicilia;Guardia Medica;2015;2015-11-24T00:08:03Z;3855605457;14.7469217;36.9261631999999
RAGUSA;RAGUSA;Sicilia;Guardia Medica;2015;2015-11-24T00:08:35Z;2249465540;14.5511038;36.7875581999999
SANTA CROCE CAMERINA;RAGUSA;Sicilia;Medlab;2015;2015-10-08T00:41:21Z;3777530657;14.5233080999999;36.8261135999999
SANTA CROCE CAMERINA;RAGUSA;Sicilia;Radiologia Dott. Gerratana;2015;2015-10-20T20:38:53Z;3796102194;14.5230505;36.8267407
BUSCEMI;SIRACUSA;Sicilia;Guardia medica;2014;2014-10-18T11:26:43Z;3136636640;14.8821068;37.0866856999999
LENTINI;SIRACUSA;Sicilia;Flight Line Clinic;2012;2012-10-10T11:42:50Z;1956529094;14.9176512999999;37.4096759
ALGHERO;SASSARI;Sardegna;Ospedale Civile di Alghero;2011;2011-02-25T15:30:32Z;1163107779;8.3193793;40.5796421
ALGHERO;SASSARI;Sardegna;Ospedale Marino Regina Margherita;2011;2011-02-20T10:52:48Z;1163107774;8.3110707;40.5800302999999
ONANI';NUORO;Sardegna;Ambulatorio Onanì;2013;2013-11-21T23:27:07Z;2544242086;9.4397632;40.4839217
MARACALAGONIS;CAGLIARI;Sardegna;Guardia Medica;2015;2015-02-14T15:02:48Z;3350116131;9.39967629999999;39.1566811
MARACALAGONIS;CAGLIARI;Sardegna;Guardia Medica;2015;2015-02-14T15:02:48Z;3350116131;9.39967629999999;39.1566811
ROVEREDO IN PIANO;PORDENONE;Friuli-Venezia Giulia;RSA;2012;2012-07-23T17:21:54Z;1835568061;12.6153815999999;46.0053029999999
CABRAS;ORISTANO;Sardegna;118;2014;2014-10-08T17:25:05Z;3118753598;8.5275371;39.9263310999999
MOGORO;ORISTANO;Sardegna;Guardia medica;2014;2014-01-08T16:52:09Z;2614920362;8.777039;39.6845783999999
PONDERANO;BIELLA;Piemonte;Ospedale degli Infermi;2015;2015-01-25T12:34:13Z;3185119556;8.0627657;45.5433767999999
INTROBIO;LECCO;Lombardia;A.S.L. Presidio di Introbio;2014;2014-01-13T23:00:08Z;2621644202;9.4461681;45.9774907999999
INTROBIO;LECCO;Lombardia;"R.S.A. """"Villa Serena"""" - Casa di Riposo";2014;2014-01-13T23:00:08Z;2621644204;9.44741269999999;45.9778077
LODI;LODI;Lombardia;Ospedale Maggiore;2012;2012-12-17T11:17:54Z;564682203;9.5112849;45.3141532
RIMINI;RIMINI;Emilia-Romagna;Ospedale dei villeggianti;2012;2012-09-26T22:02:37Z;1934414893;12.5913869999999;44.0592601999999
MAIOLO;RIMINI;Emilia-Romagna;;2015;2015-09-23T14:40:12Z;3755965132;12.2946431;43.8569001999999
PRATO;PRATO;Toscana;Casa di cura Villa Fiorita;2013;2013-06-23T19:23:50Z;2357663100;11.097007;43.9073773
CROTONE;CROTONE;Calabria;ASP;2014;2014-08-06T09:19:29Z;1584061157;17.1134306999999;39.0842737999999
CANNOBIO;VERBANIA;Piemonte;;2012;2012-12-20T20:52:19Z;1378611012;8.6925088;46.0598409999999
OMEGNA;VERBANIA;Piemonte;Ospedale Madonna del Popolo;2012;2012-05-05T10:33:52Z;1313078620;8.41180209999999;45.8729382
PIEVE VERGONTE;VERBANIA;Piemonte;Distretto Sanitario ASL 14;2014;2014-11-19T19:25:03Z;3196013184;8.2702021;46.0068349
PIEVE VERGONTE;VERBANIA;Piemonte;Veterinario;2015;2015-09-02T21:33:04Z;3726707110;8.2710291;46.0035681
SANTA TERESA GALLURA;OLBIA-TEMPIO;Sardegna;Guardia Medica;2014;2014-07-19T22:11:44Z;2839889768;9.1895936;41.2388648
CARBONIA;CARBONIA IGLESIAS;Sardegna;Ospedale Sirai;2014;2014-09-27T06:58:57Z;1529348762;8.5073994;39.1859212
CARATE BRIANZA;MONZA-BRIANZA;Lombardia;;2010;2010-01-29T20:02:10Z;622572794;9.2395677;45.6762949
CARATE BRIANZA;MONZA-BRIANZA;Lombardia;Bianalisi s.r.l. Analisi Mediche;2015;2015-07-17T20:59:18Z;3655972703;9.2351706;45.6749512
LIMBIATE;MONZA-BRIANZA;Lombardia;Villa Bianca - Multimedica;2011;2011-05-29T20:30:52Z;1301169753;9.1166253;45.6049308999999
LISSONE;MONZA-BRIANZA;Lombardia;Croce Verde Lissonese;2013;2013-10-12T15:28:38Z;2429516858;9.2385227;45.6179409
SEREGNO;MONZA-BRIANZA;Lombardia;Centro Psico - Sociale Seregno;2010;2010-09-10T19:40:36Z;905797149;9.2128389;45.6456687
VAREDO;MONZA-BRIANZA;Lombardia;Varedo Soccorso;2014;2014-06-12T08:00:45Z;2912402416;9.1489818;45.5966292999999
SANT'ELPIDIO A MARE;FERMO;Marche;;2011;2011-11-20T10:00:36Z;736622623;13.6887545999999;43.2342658
ANDRIA;BARLETTA-ANDRIA-TRANI;Puglia;Guardia Medica;2013;2013-07-11T09:27:32Z;418759967;16.3046502;41.2361859999999
MINERVINO MURGE;BARLETTA-ANDRIA-TRANI;Puglia;Ospedale Civile;2010;2010-12-07T22:26:39Z;667117500;16.0763594;41.0922843
SPINAZZOLA;BARLETTA-ANDRIA-TRANI;Puglia;;2010;2010-03-27T10:45:43Z;675635464;16.0841554;40.973668
TRANI;BARLETTA-ANDRIA-TRANI;Puglia;San Nicola Pellegrino;2009;2009-08-08T15:34:26Z;387221877;16.4296805;41.2674853999999
